time(millisecond),datetime(utc),latitude,longitude,height_above_takeoff(feet),height_above_ground_at_drone_location(feet),ground_elevation_at_drone_location(feet),altitude_above_seaLevel(feet),speed(mph),distance(feet),satellites,gpslevel,voltage(v),max_altitude(feet),max_ascent(feet),max_speed(mph),max_distance(feet), xSpeed(mph), ySpeed(mph), zSpeed(mph), compass_heading(degrees), pitch(degrees), roll(degrees),isPhoto,isVideo,rc_elevator,rc_aileron,rc_throttle,rc_rudder,gimbal_heading(degrees),gimbal_pitch(degrees),battery_percent,voltageCell1,voltageCell2,voltageCell3,voltageCell4,voltageCell5,voltageCell6,current(A),battery_temperature(f),altitude(feet),ascent(feet),flycStateRaw,flycState,message
199800,2019-10-10 19:00:03,19.2833681832273,-99.1386495929942,0,Available with any HD 360 subscription,Available with any HD 360 subscription,7352.4497474175,0,0,11,0,0,7352.4497474175,0,0,0,0,0,0,306.9, 1.7, 0.4,0,0,364,364,364,1684,311.4,4.2,81,3.975,3.976,3.965,3.981,0,0,0,111.11,7352.4497474175,0,6,P-GPS,
199900,2019-10-10 19:00:03,19.2833680840577,-99.1386495943344,0,,,7352.4497474175,0,0.036185040528,11,0,0,7352.4497474175,0,0,0.036185040528,0,0,0,306.9, 1.7, 0.4,0,0,364,364,364,1684,311.4,4.2,81,3.975,3.976,3.965,3.981,0,0,0,111.11,7352.4497474175,0,6,P-GPS,
200000,2019-10-10 19:00:03,19.2833680853566,-99.1386495954866,0,,,7352.4497474175,0,0.03571850508,11,0,0,7352.4497474175,0,0,0.036185040528,0,0,0,306.9, 1.7, 0.4,0,0,364,364,364,1684,311.4,4.2,81,3.975,3.976,3.965,3.981,0,0,0,111.11,7352.4497474175,0,6,P-GPS,
200100,2019-10-10 19:00:03,19.2833680864928,-99.1386495972609,0,,,7352.4497474175,0,0.035324148112,11,0,0,7352.4497474175,0,0,0.036185040528,0,0,0,306.9, 1.7, 0.4,0,0,364,364,364,1684,311.4,4.2,81,3.975,3.976,3.965,3.981,0,0,0,111.11,7352.4497474175,0,6,P-GPS,
200200,2019-10-10 19:00:03,19.2833680670505,-99.1386496099192,0,,,7352.4497474175,0,0.042785762524,11,0,0,7352.4497474175,0,0,0.042785762524,0,0,0,306.9, 1.7, 0.4,0,0,364,364,364,1684,311.4,4.2,81,3.975,3.976,3.965,3.981,0,0,0,111.11,7352.4497474175,0,6,P-GPS,
200300,2019-10-10 19:00:03,19.2833680677479,-99.1386497110758,0,,,7352.4497474175,0,0.058555776152,11,0,0,7352.4497474175,0,0,0.058555776152,0,0,0,306.9, 1.7, 0.4,0,0,364,364,364,1684,311.4,4.2,81,3.975,3.976,3.965,3.981,0,0,0,111.11,7352.4497474175,0,6,P-GPS,
200400,2019-10-10 19:00:03,19.2833680682911,-99.1386497127416,0,,,7352.4497474175,0,0.058814306344,11,0,0,7352.4497474175,0,0,0.058814306344,0,0,0,306.9, 1.7, 0.4,0,0,364,364,364,1684,311.4,4.2,81,3.975,3.976,3.965,3.981,0,0,0,111.11,7352.4497474175,0,6,P-GPS,
200500,2019-10-10 19:00:03,19.2833680766033,-99.138649712628,0,,,7352.4497474175,0,0.05666338764,11,0,0,7352.4497474175,0,0,0.058814306344,0,0,0,306.9, 1.7, 0.4,0,0,364,364,364,1684,311.4,4.2,81,3.975,3.976,3.965,3.981,0,0,0,111.11,7352.4497474175,0,6,P-GPS,
200600,2019-10-10 19:00:04,19.2833680766532,-99.1386497141895,0,,,7352.4497474175,0,0.057043308912,11,0,15.897,7352.4497474175,0,0,0.058814306344,0,0,0,306.9, 1.7, 0.4,0,0,478,750,592,1372,311.4,4.2,81,3.975,3.976,3.965,3.981,0,0,0.937,111.11,7352.4497474175,0,6,P-GPS,Setting new Return-To-Home altitude to 30m (98 ft). Data Recorder File Index is 412
200700,2019-10-10 19:00:04,19.2833680766226,-99.1386497147656,0,,,7352.4497474175,0,0.052847442636,11,0,15.897,7352.4497474175,0,0,0.058814306344,0,0,0,306.9, 1.7, 0.4,0,0,1024,1024,1024,1024,310.2,4.2,81,3.975,3.976,3.965,3.981,0,0,0.937,111.11,7352.4497474175,0,6,P-GPS,
200800,2019-10-10 19:00:04,19.2833680579014,-99.1386497256193,0,,,7352.4497474175,0,0.06040682608,11,0,15.897,7352.4497474175,0,0,0.06040682608,0,0,0,306.9, 1.7, 0.4,0,0,1024,1024,1024,1024,308.9,4.2,81,3.975,3.976,3.965,3.981,0,0,0.937,111.11,7352.4497474175,0,6,P-GPS,
200900,2019-10-10 19:00:04,19.2833680589919,-99.1386497258858,0,,,7352.4497474175,0,0.060171589852,11,0,15.897,7352.4497474175,0,0,0.06040682608,0,0,0,306.9, 1.7, 0.4,0,0,1024,1024,1024,1024,308.3,4.2,81,3.975,3.976,3.965,3.981,0,0,0.937,111.11,7352.4497474175,0,6,P-GPS,
201000,2019-10-10 19:00:04,19.283368059752,-99.1386497252061,0,,,7352.4497474175,0,0.059808728948,11,0,15.897,7352.4497474175,0,0,0.06040682608,0,0,0,306.9, 1.7, 0.4,0,0,1024,1024,1024,1024,308,4.2,81,3.975,3.976,3.965,3.981,0,0,0.937,111.11,7352.4497474175,0,6,P-GPS,
201100,2019-10-10 19:00:04,19.2833680710512,-99.1386497215921,0,,,7352.4497474175,0,0.055940946672,11,0,15.897,7352.4497474175,0,0,0.06040682608,0,0,0,306.9, 1.7, 0.4,0,0,1024,1024,1255,1024,308,4.2,81,3.975,3.976,3.965,3.981,0,0,0.937,111.11,7352.4497474175,0,6,P-GPS,
201200,2019-10-10 19:00:04,19.2833680707006,-99.1386497216754,0,,,7352.4497474175,0,0.0560531514,11,0,15.897,7352.4497474175,0,0,0.06040682608,0,0,0,306.9, 1.7, 0.4,0,0,1024,1024,1655,987,307.7,4.2,81,3.975,3.976,3.965,3.981,0,0,0.937,111.11,7352.4497474175,0,6,P-GPS,
201300,2019-10-10 19:00:04,19.2833680705624,-99.1386497235756,0,,,7352.4497474175,0,0.056543965064,11,0,15.897,7352.4497474175,0,0,0.06040682608,0,0,0,306.9, 1.7, 0.4,0,0,1024,1024,1614,980,307.5,4.2,81,3.975,3.976,3.965,3.981,0,0,0.937,111.11,7352.4497474175,0,6,P-GPS,
201400,2019-10-10 19:00:04,19.2833680521737,-99.1386497316329,0,,,7352.4497474175,0,0.0633448183,11,0,15.897,7352.4497474175,0,0,0.0633448183,0,0,0,306.9, 1.7, 0.4,0,0,1024,1024,1024,1024,307.5,4.2,81,3.975,3.976,3.965,3.981,0,0,0.937,111.11,7352.4497474175,0,6,P-GPS,
201500,2019-10-10 19:00:04,19.2833680530824,-99.1386497329291,0,,,7352.4497474175,0,0.06339731174,11,0,15.897,7352.4497474175,0,0,0.06339731174,0,0,0,306.9, 1.7, 0.4,0,0,1024,1024,1024,1024,307.3,4.2,81,3.975,3.976,3.965,3.981,0,0,0.937,111.11,7352.4497474175,0,6,P-GPS,
201600,2019-10-10 19:00:05,19.2833680551158,-99.138649732907,0,,,7352.4497474175,0,0.062845474452,11,0,15.901,7352.4497474175,0,0,0.06339731174,0,0,0,306.9, 1.7, 0.4,0,0,1024,1024,1172,1024,307.3,4.2,81,3.976,3.976,3.967,3.982,0,0,1.017,111.11,7352.4497474175,0,6,P-GPS,
201700,2019-10-10 19:00:05,19.2833680923519,-99.1386498138049,0,,,7352.4497474175,0,0.077665028732,11,0,15.901,7352.4497474175,0,0,0.077665028732,0,0,0,306.9, 1.7, 0.4,0,0,1024,1024,1641,1024,307.2,4.2,81,3.976,3.976,3.967,3.982,0,0,1.017,111.11,7352.4497474175,0,10,Assisted_Takeoff,
201800,2019-10-10 19:00:05,19.2833680950912,-99.1386498153074,0,,,7352.4497474175,0,0.077723755768,11,0,15.901,7352.4497474175,0,0,0.077723755768,0,0,0,306.9, 1.7, 0.4,0,0,1024,1024,1684,1024,307.2,4.2,81,3.976,3.976,3.967,3.982,0,0,1.017,111.11,7352.4497474175,0,10,Assisted_Takeoff,Return-to-Home Altitude:98FT
201900,2019-10-10 19:00:05,19.2833680959036,-99.1386498170342,0,,,7352.4497474175,0,0.078148296464,11,0,15.901,7352.4497474175,0,0,0.078148296464,0,0,0,306.8, 1.7, 0.4,0,0,1024,1024,1474,1024,307.2,4.2,81,3.976,3.976,3.967,3.982,0,0,1.017,111.11,7352.4497474175,0,10,Assisted_Takeoff,
202000,2019-10-10 19:00:05,19.2833680689322,-99.1386498202973,0,,,7352.4497474175,0,0.083557745456,11,0,15.901,7352.4497474175,0,0,0.083557745456,0,0,0,306.8, 1.7, 0.4,0,0,1024,1024,1024,1024,307.2,4.2,81,3.976,3.976,3.967,3.982,0,0,1.017,111.11,7352.4497474175,0,10,Assisted_Takeoff,
202200,2019-10-10 19:00:05,19.2833681682112,-99.13864982198,0,,,7352.4497474175,0,0.073480317312,11,0,15.901,7352.4497474175,0,0,0.083557745456,0,0,0,306.8, 1.8, 0.4,0,0,1024,1024,1467,1024,307.2,4.2,81,3.976,3.976,3.967,3.982,0,0,1.017,111.11,7352.4497474175,0,10,Assisted_Takeoff,
202300,2019-10-10 19:00:05,19.2833681650577,-99.1386498004447,0,,,7352.4497474175,0,0.066177495556,11,0,15.901,7352.4497474175,0,0,0.083557745456,0,0,0,306.8, 1.8, 0.4,0,0,1024,1024,1684,1024,307.2,4.2,81,3.976,3.976,3.967,3.982,0,0,1.017,111.11,7352.4497474175,0,10,Assisted_Takeoff,
202400,2019-10-10 19:00:05,19.2833681666601,-99.1386498021017,0,,,7352.4497474175,0,0.066695540192,11,0,15.901,7352.4497474175,0,0,0.083557745456,0,0,0,306.8, 1.8, 0.5,0,0,1024,1024,1684,1024,307.2,4.2,81,3.976,3.976,3.967,3.982,0,0,1.017,111.11,7352.4497474175,0,10,Assisted_Takeoff,
202500,2019-10-10 19:00:05,19.283368168601,-99.1386498015084,0,,,7352.4497474175,0,0.066437338084,10,0,15.901,7352.4497474175,0,0,0.083557745456,0,0,0,306.8, 1.8, 0.5,0,0,1024,1024,1684,1024,307.2,4.2,81,3.976,3.976,3.967,3.982,0,0,1.017,111.11,7352.4497474175,0,10,Assisted_Takeoff,
202600,2019-10-10 19:00:06,19.2833681841225,-99.1386497961143,0,,,7352.4497474175,0,0.064415356392,10,0,15.901,7352.4497474175,0,0,0.083557745456,0,0,0,306.4, 2.2, 1,0,0,1024,1024,1684,1024,307.1,4.2,81,3.976,3.976,3.967,3.982,0,0,1.017,111.11,7352.4497474175,0,10,Assisted_Takeoff,
202700,2019-10-10 19:00:06,19.2833681770777,-99.1386497517295,0,,,7352.4497474175,0,0.04915190446,11,0,15.821,7352.4497474175,0,0,0.083557745456,0,0,-0.671082,305.5, 2.6, 1.3,0,0,1024,1024,1596,1024,307,4.2,81,3.957,3.971,3.966,3.95,0,0,2.61,111.11,7352.4497474175,0,6,P-GPS,
202800,2019-10-10 19:00:06,19.2833681710845,-99.138649651179,0,,,7352.4497474175,0.223694,0.014999672396,11,0,15.821,7352.4497474175,0,0.223694,0.083557745456,0,0.223694,-1.342164,304.5, 2.7, 1.3,0,0,1024,1024,1024,1024,306.8,4.2,81,3.957,3.971,3.966,3.95,0,0,2.61,111.11,7352.4497474175,0,6,P-GPS,
202900,2019-10-10 19:00:06,19.2833682601521,-99.1386495124556,0.328084,,,7352.7778314175,0.223694,0.043906169384,11,0,15.821,7352.7778314175,0.328084,0.223694,0.083557745456,0,0.223694,-1.565858,303.6, 2.8, 1,0,0,1024,1024,1024,1024,306.5,4.2,81,3.957,3.971,3.966,3.95,0,0,2.61,111.11,7352.7778314175,0.328084,6,P-GPS,
203000,2019-10-10 19:00:06,19.2833682702065,-99.1386493525273,0.328084,,,7352.7778314175,0.447388,0.094076118496,11,0,15.821,7352.7778314175,0.328084,0.447388,0.094076118496,0,0.447388,-1.565858,303.2, 2.2, 0.7,0,0,1024,1024,1024,1024,306.1,4.2,81,3.957,3.971,3.966,3.95,0,0,2.61,111.11,7352.7778314175,0.328084,6,P-GPS,
203100,2019-10-10 19:00:06,19.2833683099277,-99.1386490624804,0.656168,,,7353.1059154175,0.447388,0.193971134816,11,0,15.821,7353.1059154175,0.656168,0.447388,0.193971134816,0,0.447388,-1.565858,303, 1.3, 0.2,0,0,1024,1024,1024,1024,305.7,4.2,81,3.957,3.971,3.966,3.95,0,0,2.61,111.11,7353.1059154175,0.656168,6,P-GPS,
203200,2019-10-10 19:00:06,19.2833683672814,-99.1386488342447,0.984252,,,7353.4339994175,0.447388,0.275300861828,11,0,15.821,7353.4339994175,0.984252,0.447388,0.275300861828,0,0.447388,-1.565858,302.9, 0.6, -0.4,0,0,1024,1024,1083,1024,305.7,4.2,81,3.957,3.971,3.966,3.95,0,0,2.61,111.11,7353.4339994175,0.984252,6,P-GPS,
203300,2019-10-10 19:00:06,19.2833685303189,-99.1386485671115,1.312336,,,7353.7620834175,0.447388,0.38071851612,11,0,15.821,7353.7620834175,1.312336,0.447388,0.38071851612,0,0.447388,-1.342164,303, 0.2, -1.1,0,0,1024,1024,1279,1024,305.3,4.2,81,3.957,3.971,3.966,3.95,0,0,2.61,111.11,7353.7620834175,1.312336,6,P-GPS,
203400,2019-10-10 19:00:06,19.2833686069685,-99.1386483675436,1.64042,,,7354.0901674175,0.223694,0.45485237676,11,0,15.821,7354.0901674175,1.64042,0.447388,0.45485237676,0,0.223694,-1.342164,303.1, 0, -1.8,0,0,1024,1024,1527,1024,305.1,4.2,81,3.957,3.971,3.966,3.95,0,0,2.61,111.11,7354.0901674175,1.64042,6,P-GPS,
203500,2019-10-10 19:00:06,19.2833684121604,-99.1386482313537,1.64042,,,7354.0901674175,0.223694,0.48186025164,10,0,15.821,7354.0901674175,1.64042,0.447388,0.48186025164,0,0.223694,-1.565858,303.1, -0.3, -2.1,0,0,1024,1024,1114,1024,305,4.2,81,3.957,3.971,3.966,3.95,0,0,2.61,111.11,7354.0901674175,1.64042,6,P-GPS,
203600,2019-10-10 19:00:07,19.2833684892216,-99.1386480292726,1.968504,,,7354.4182514175,0.223694,0.55550854796,10,0,15.821,7354.4182514175,1.968504,0.447388,0.55550854796,0,0.223694,-2.23694,302.9, -0.4, -2.3,0,0,1024,1024,1024,1024,305,4.2,81,3.957,3.971,3.966,3.95,0,0,2.61,111.11,7354.4182514175,1.968504,6,P-GPS,
203700,2019-10-10 19:00:07,19.283368681774,-99.1386474115209,2.296588,,,7354.7463354175,0,0.77848427688,10,0,15.699,7354.7463354175,2.296588,0.447388,0.77848427688,0,0,-2.460634,302.9, -0.5, -2.1,0,0,1024,1024,1024,1024,304.9,4.2,81,3.923,3.929,3.866,3.86,0,0,4.864,111.11,7354.7463354175,2.296588,6,P-GPS,
203900,2019-10-10 19:00:07,19.2833685027367,-99.1386476163114,2.952756,,,7355.4025034175,0,0.69619752884,10,0,15.699,7355.4025034175,2.952756,0.447388,0.77848427688,0,0,-1.342164,303.3, -1.6, -1.9,0,0,1024,1024,1481,1024,304.8,4.2,81,3.923,3.929,3.866,3.86,0,0,4.864,111.11,7355.4025034175,2.952756,6,P-GPS,
204000,2019-10-10 19:00:07,19.2833684868856,-99.1386475853252,3.28084,,,7355.7305874175,0,0.70578414332,10,0,15.699,7355.7305874175,3.28084,0.447388,0.77848427688,0,0,-1.342164,303.2, -1.6, -1.7,0,0,1024,1024,1405,1024,304.7,4.2,81,3.923,3.929,3.866,3.86,0,0,4.864,111.11,7355.7305874175,3.28084,6,P-GPS,
204100,2019-10-10 19:00:07,19.2833684946044,-99.1386478790851,3.608924,,,7356.0586714175,0,0.60662075432,10,0,15.699,7356.0586714175,3.608924,0.447388,0.77848427688,0,0,-1.789552,302.7, -0.8, -1.6,0,0,1024,1024,1193,1024,304.7,4.2,81,3.923,3.929,3.866,3.86,0,0,4.864,111.11,7356.0586714175,3.608924,6,P-GPS,
204200,2019-10-10 19:00:07,19.2833685054475,-99.1386478463541,3.937008,,,7356.3867554175,0,0.61843834,10,0,15.699,7356.3867554175,3.937008,0.447388,0.77848427688,0,0,-2.460634,302.2, 0.3, -1.3,0,0,1024,1024,1024,1024,304.6,4.2,81,3.923,3.929,3.866,3.86,0,0,4.864,111.11,7356.3867554175,3.937008,6,P-GPS,
204300,2019-10-10 19:00:07,19.2833683867786,-99.1386480385422,4.265092,,,7356.7148394175,0.223694,0.54601707784,11,0,15.699,7356.7148394175,4.265092,0.447388,0.77848427688,0,-0.223694,-2.460634,302.2, 1.2, -0.6,0,0,1024,1024,1024,1024,304.5,4.2,81,3.923,3.929,3.866,3.86,0,0,4.864,111.11,7356.7148394175,4.265092,6,P-GPS,
204400,2019-10-10 19:00:07,19.2833683674548,-99.138648109056,4.593176,,,7357.0429234175,0.223694,0.52101051536,11,0,15.699,7357.0429234175,4.593176,0.447388,0.77848427688,0,-0.223694,-1.789552,302.6, 1.3, -0.1,0,0,1024,1024,1024,1024,304.4,4.2,81,3.923,3.929,3.866,3.86,0,0,4.864,111.11,7357.0429234175,4.593176,6,P-GPS,
204500,2019-10-10 19:00:07,19.2833682332562,-99.1386483777357,4.92126,,,7357.3710074175,0,0.42447179836,11,0,15.699,7357.3710074175,4.92126,0.447388,0.77848427688,0,0,-1.342164,303.1, 1.1, 0,0,0,1024,1024,1241,1024,304.4,4.2,81,3.923,3.929,3.866,3.86,0,0,4.864,111.11,7357.3710074175,4.92126,6,P-GPS,
204600,2019-10-10 19:00:08,19.2833681823205,-99.1386484679793,4.92126,,,7357.3710074175,0,0.39297573436,11,0,15.699,7357.3710074175,4.92126,0.447388,0.77848427688,0,0,-0.894776,303.5, 0.9, 0,0,0,1024,1024,1652,1024,304.4,4.2,81,3.923,3.929,3.866,3.86,0,0,4.864,111.11,7357.3710074175,4.92126,6,P-GPS,
204700,2019-10-10 19:00:08,19.2833683377049,-99.1386484770383,5.249344,,,7357.6990914175,0,0.39398951392,11,0,15.699,7357.6990914175,5.249344,0.447388,0.77848427688,0,0,-0.894776,303.6, 1, 0.2,0,0,1024,1024,1684,1024,304.4,4.2,81,3.923,3.929,3.866,3.86,0,0,4.864,111.11,7357.6990914175,5.249344,6,P-GPS,
204800,2019-10-10 19:00:08,19.2833683568218,-99.1386483999721,5.249344,,,7357.6990914175,0,0.42126969852,11,0,15.213,7357.6990914175,5.249344,0.447388,0.77848427688,0,0,-1.342164,303.4, 1.3, 0,0,0,1024,1024,1223,1024,304.4,4.2,81,3.801,3.806,3.741,3.73,0,0,15.3,111.11,7357.6990914175,5.249344,6,P-GPS,
204800,2019-10-10 19:00:08,19.2833683568218,-99.1386483999721,5.249344,,,7357.6990914175,0,0.42126969852,11,0,15.213,7357.6990914175,5.249344,0.447388,0.77848427688,0,0,-1.342164,303.4, 1.3, 0,0,0,1024,1024,1024,1024,304.3,4.2,81,3.801,3.806,3.741,3.73,0,0,15.3,111.11,7357.6990914175,5.249344,6,P-GPS,
205000,2019-10-10 19:00:08,19.283368222011,-99.1386487392035,5.905512,,,7358.3552594175,0,0.299932096212,11,0,15.213,7358.3552594175,5.905512,0.447388,0.77848427688,0,0,-2.684328,302.6, 2.4, -0.3,0,0,1067,1024,1024,1024,304.3,4.2,81,3.801,3.806,3.741,3.73,0,0,15.3,111.11,7358.3552594175,5.905512,6,P-GPS,
205100,2019-10-10 19:00:08,19.2833681776305,-99.1386487499962,6.233596,,,7358.6833434175,0,0.295856964848,10,0,15.213,7358.6833434175,6.233596,0.447388,0.77848427688,0,0,-2.460634,302.9, 2, 0,0,0,1231,1024,1024,1024,304.2,4.2,81,3.801,3.806,3.741,3.73,0,0,15.3,111.11,7358.6833434175,6.233596,6,P-GPS,
205200,2019-10-10 19:00:08,19.2833681446004,-99.1386486988235,6.56168,,,7359.0114274175,0,0.313767726576,10,0,15.213,7359.0114274175,6.56168,0.447388,0.77848427688,0,0,-2.013246,303.6, 0.5, 0,0,0,1377,1024,1024,1024,304.2,4.2,81,3.801,3.806,3.741,3.73,0,0,15.3,111.11,7359.0114274175,6.56168,6,P-GPS,
205300,2019-10-10 19:00:08,19.2833680569955,-99.1386488983866,6.889764,,,7359.3395114175,0,0.24894029668,10,0,15.213,7359.3395114175,6.889764,0.447388,0.77848427688,0,0,-1.342164,304.3, -5.5, 0.2,0,0,1381,1024,1024,1024,304.2,4.2,81,3.801,3.806,3.741,3.73,0,0,15.3,111.11,7359.3395114175,6.889764,6,P-GPS,
205400,2019-10-10 19:00:08,19.2833681078044,-99.1386489848586,7.217848,,,7359.6675954175,0.3131716,0.216653222156,10,0,15.213,7359.6675954175,7.217848,0.447388,0.77848427688,0.223694,-0.223694,-0.894776,304.9, -14.6, 0.2,0,0,1311,1024,1024,1024,304.2,4.2,81,3.801,3.806,3.741,3.73,0,0,15.3,111.11,7359.6675954175,7.217848,6,P-GPS,
205500,2019-10-10 19:00:08,19.2833683024347,-99.1386492448777,7.217848,,,7359.6675954175,0.8052984,0.132942589556,10,0,15.213,7359.6675954175,7.217848,0.8052984,0.77848427688,0.447388,-0.671082,-0.671082,305.4, -18.1, 0.1,0,0,1079,1024,1024,1024,304.2,4.2,81,3.801,3.806,3.741,3.73,0,0,15.3,111.11,7359.6675954175,7.217848,6,P-GPS,
205600,2019-10-10 19:00:09,19.2833686073525,-99.1386496486548,7.545932,,,7359.9956794175,1.4316416,0.155914375068,10,0,15.213,7359.9956794175,7.545932,1.4316416,0.77848427688,0.894776,-1.11847,-0.671082,305.6, -15.3, 0.3,0,0,1024,1024,1024,1024,304.3,4.2,81,3.801,3.806,3.741,3.73,0,0,15.3,111.11,7359.9956794175,7.545932,6,P-GPS,
205700,2019-10-10 19:00:09,19.283368995733,-99.1386500031726,7.545932,,,7359.9956794175,1.4316416,0.326555784728,11,0,15.213,7359.9956794175,7.545932,1.4316416,0.77848427688,0.894776,-1.11847,-0.447388,305.7, -4.9, 0.6,0,0,1024,1024,1024,1024,304.3,4.2,81,3.801,3.806,3.741,3.73,0,0,15.3,111.11,7359.9956794175,7.545932,6,P-GPS,
205800,2019-10-10 19:00:09,19.2833694320932,-99.1386505545066,7.545932,,,7359.9956794175,1.4316416,0.56048558224,11,0,15.027,7359.9956794175,7.545932,1.4316416,0.77848427688,0.894776,-1.11847,-0.223694,305.7, 1.9, 1,0,0,1024,1024,1024,1024,304.4,4.2,80,3.721,3.786,3.78,3.783,0,0,16.078,111.11,7359.9956794175,7.545932,6,P-GPS,
205900,2019-10-10 19:00:09,19.2833708386239,-99.138652291287,7.545932,,,7359.9956794175,1.4316416,1.3390092292,11,0,15.027,7359.9956794175,7.545932,1.4316416,1.3390092292,0.894776,-1.11847,0,305.4, 3.7, 0.8,0,0,1024,1024,1024,1024,304.4,4.2,80,3.721,3.786,3.78,3.783,0,0,16.078,111.11,7359.9956794175,7.545932,6,P-GPS,
206000,2019-10-10 19:00:09,19.2833710792848,-99.1386525843832,7.545932,,,7359.9956794175,1.2750558,1.4722605458,11,0,15.027,7359.9956794175,7.545932,1.4316416,1.4722605458,0.894776,-0.894776,0,305, 4.5, 0.6,0,0,1024,1024,1024,1024,304.4,4.2,80,3.721,3.786,3.78,3.783,0,0,16.078,111.11,7359.9956794175,7.545932,6,P-GPS,
206100,2019-10-10 19:00:09,19.2833717402652,-99.1386530677774,7.545932,,,7359.9956794175,0.9395148,1.76194887528,11,0,15.027,7359.9956794175,7.545932,1.4316416,1.76194887528,0.671082,-0.671082,0,304.8, 4.9, 0.3,0,0,1111,1024,1024,1024,304.4,4.2,80,3.721,3.786,3.78,3.783,0,0,16.078,111.11,7359.9956794175,7.545932,6,P-GPS,
206200,2019-10-10 19:00:09,19.2833720529648,-99.1386533312822,7.545932,,,7359.9956794175,0.8052984,1.90739179332,11,0,15.027,7359.9956794175,7.545932,1.4316416,1.90739179332,0.671082,-0.447388,0,304.7, 5.1, 0.1,0,0,1257,1024,1024,1024,304.4,4.2,80,3.721,3.786,3.78,3.783,0,0,16.078,111.11,7359.9956794175,7.545932,6,P-GPS,
206300,2019-10-10 19:00:09,19.283372460257,-99.1386534433919,7.545932,,,7359.9956794175,0.8052984,2.04462276884,10,0,15.027,7359.9956794175,7.545932,1.4316416,2.04462276884,0.671082,-0.447388,0,304.7, 1.2, 0.4,0,0,1304,1024,1024,1024,304.4,4.2,80,3.721,3.786,3.78,3.783,0,0,16.078,111.11,7359.9956794175,7.545932,6,P-GPS,
206400,2019-10-10 19:00:09,19.2833728081161,-99.1386537155069,7.545932,,,7359.9956794175,1.11847,2.2020669996,10,0,15.027,7359.9956794175,7.545932,1.4316416,2.2020669996,0.894776,-0.671082,0,304.7, -7.7, 0.4,0,0,1267,1024,1024,1024,304.4,4.2,80,3.721,3.786,3.78,3.783,0,0,16.078,111.11,7359.9956794175,7.545932,6,P-GPS,
206500,2019-10-10 19:00:09,19.2833724441384,-99.1386532381238,7.545932,,,7359.9956794175,1.4316416,1.9951116124,10,0,15.027,7359.9956794175,7.545932,1.4316416,2.2020669996,1.11847,-0.894776,0,304.6, -12.5, 0.4,0,0,1270,1024,1024,1024,304.4,4.2,80,3.721,3.786,3.78,3.783,0,0,16.078,111.11,7359.9956794175,7.545932,6,P-GPS,
206600,2019-10-10 19:00:10,19.2833729702009,-99.1386537389626,7.545932,,,7359.9956794175,1.901399,2.25280847104,10,0,15.027,7359.9956794175,7.545932,1.901399,2.25280847104,1.342164,-1.342164,0,304.6, -12, 0.5,0,0,1261,1024,1024,1024,304.4,4.2,80,3.721,3.786,3.78,3.783,0,0,16.078,111.11,7359.9956794175,7.545932,6,P-GPS,
206700,2019-10-10 19:00:10,19.2833739170988,-99.1386544042805,7.545932,,,7359.9956794175,2.2145706,2.66568906168,12,0,15.027,7359.9956794175,7.545932,2.2145706,2.66568906168,1.565858,-1.565858,0,304.5, -10.6, 0.4,0,0,1267,1024,1024,1024,304.4,4.2,80,3.721,3.786,3.78,3.783,0,0,16.078,111.11,7359.9956794175,7.545932,6,P-GPS,
206800,2019-10-10 19:00:10,19.2833746638741,-99.1386551641701,7.545932,,,7359.9956794175,2.5277422,3.04190626532,12,0,15.105,7359.9956794175,7.545932,2.5277422,3.04190626532,1.789552,-1.789552,0,304.4, -9.3, 0.2,0,0,1247,1024,1024,1024,304.4,4.2,80,3.757,3.775,3.773,3.775,0,0,15.02,111.11,7359.9956794175,7.545932,6,P-GPS,
206900,2019-10-10 19:00:10,19.2833767600774,-99.1386569610115,7.545932,,,7359.9956794175,2.684328,4.0256891052,10,0,15.105,7359.9956794175,7.545932,2.684328,4.0256891052,2.013246,-1.789552,0,304.5, -8.6, 0,0,0,1258,1024,1024,1024,304.4,4.2,80,3.757,3.775,3.773,3.775,0,0,15.02,111.11,7359.9956794175,7.545932,6,P-GPS,
207000,2019-10-10 19:00:10,19.2833777536769,-99.1386578314169,7.545932,,,7359.9956794175,2.8409138,4.496063136,10,0,15.105,7359.9956794175,7.545932,2.8409138,4.496063136,2.013246,-2.013246,0,304.6, -7.7, -0.1,0,0,1269,1024,1024,1024,304.4,4.2,80,3.757,3.775,3.773,3.775,0,0,15.02,111.11,7359.9956794175,7.545932,6,P-GPS,
207100,2019-10-10 19:00:10,19.283377390579,-99.1386577171505,7.545932,,,7359.9956794175,3.019869,4.3687009272,11,0,15.105,7359.9956794175,7.545932,3.019869,4.496063136,2.013246,-2.23694,0,304.7, -7.2, -0.1,0,0,1264,1024,1024,1024,304.4,4.2,80,3.757,3.775,3.773,3.775,0,0,15.02,111.11,7359.9956794175,7.545932,6,P-GPS,
207200,2019-10-10 19:00:10,19.2833783040347,-99.1386587369644,7.545932,,,7359.9956794175,3.1540854,4.8498033048,11,0,15.105,7359.9956794175,7.545932,3.1540854,4.8498033048,2.23694,-2.23694,0,304.8, -7.5, 0,0,0,1243,1024,1024,1024,304.5,4.2,80,3.757,3.775,3.773,3.775,0,0,15.02,111.11,7359.9956794175,7.545932,6,P-GPS,
207300,2019-10-10 19:00:10,19.2833793994871,-99.138659632096,7.545932,,,7359.9956794175,3.4896264,5.3540356044,11,0,15.105,7359.9956794175,7.545932,3.4896264,5.3540356044,2.460634,-2.460634,0,304.9, -7.2, 0.1,0,0,1247,1024,1024,1024,304.4,4.2,80,3.757,3.775,3.773,3.775,0,0,15.02,111.11,7359.9956794175,7.545932,6,P-GPS,
207400,2019-10-10 19:00:10,19.2833804230269,-99.1386607352395,7.545932,,,7359.9956794175,3.4896264,5.8846130492,11,0,15.105,7359.9956794175,7.545932,3.4896264,5.8846130492,2.460634,-2.460634,0,304.9, -6.2, 0.1,0,0,1247,1024,1024,1024,304.4,4.2,80,3.757,3.775,3.773,3.775,0,0,15.02,111.11,7359.9956794175,7.545932,6,P-GPS,
207500,2019-10-10 19:00:10,19.2833816600137,-99.1386618926659,7.545932,,,7359.9956794175,3.6462122,6.486712806,11,0,15.105,7359.9956794175,7.545932,3.6462122,6.486712806,2.684328,-2.460634,0,304.8, -5.8, 0,0,0,1246,1024,1024,1024,304.5,4.2,80,3.757,3.775,3.773,3.775,0,0,15.02,111.11,7359.9956794175,7.545932,6,P-GPS,
207600,2019-10-10 19:00:11,19.2833828103426,-99.1386629320808,7.545932,,,7359.9956794175,3.802798,7.0383204352,11,0,15.105,7359.9956794175,7.545932,3.802798,7.0383204352,2.684328,-2.684328,0,304.8, -5.8, -0.2,0,0,1262,1024,1024,1024,304.5,4.2,80,3.757,3.775,3.773,3.775,0,0,15.02,111.11,7359.9956794175,7.545932,6,P-GPS,
207700,2019-10-10 19:00:11,19.2833838615697,-99.1386643259324,7.545932,,,7359.9956794175,3.802798,7.6429136304,11,0,15.105,7359.9956794175,7.545932,3.802798,7.6429136304,2.684328,-2.684328,0,304.9, -5.9, -0.2,0,0,1304,1024,1024,1024,304.5,4.2,80,3.757,3.775,3.773,3.775,0,0,15.02,111.11,7359.9956794175,7.545932,6,P-GPS,
207800,2019-10-10 19:00:11,19.2833850035242,-99.1386655787271,7.545932,,,7359.9956794175,3.9593838,8.2410107624,11,0,15.044,7359.9956794175,7.545932,3.9593838,8.2410107624,2.684328,-2.908022,0,305, -6.7, -0.2,0,0,1304,1024,1024,1024,304.5,4.2,80,3.749,3.76,3.756,3.756,0,0,14.23,111.11,7359.9956794175,7.545932,6,P-GPS,
207900,2019-10-10 19:00:11,19.2833862782602,-99.1386670760862,7.545932,,,7359.9956794175,4.2725554,8.9318244328,12,0,15.044,7359.9956794175,7.545932,4.2725554,8.9318244328,2.908022,-3.131716,0,305, -8.6, -0.3,0,0,1306,1024,1024,1024,304.5,4.2,80,3.749,3.76,3.756,3.756,0,0,14.23,111.11,7359.9956794175,7.545932,6,P-GPS,
208000,2019-10-10 19:00:11,19.283387488778,-99.1386684829919,7.545932,,,7359.9956794175,4.4291412,9.5847772096,12,0,15.044,7359.9956794175,7.545932,4.4291412,9.5847772096,2.908022,-3.35541,0,305.2, -9.4, -0.5,0,0,1311,1024,1024,1024,304.5,4.2,80,3.749,3.76,3.756,3.756,0,0,14.23,111.11,7359.9956794175,7.545932,6,P-GPS,
208100,2019-10-10 19:00:11,19.2833889586867,-99.1386699695863,7.545932,,,7359.9956794175,4.585727,10.326115816,12,0,15.044,7359.9956794175,7.545932,4.585727,10.326115816,3.131716,-3.35541,0,305.3, -9.2, -0.5,0,0,1305,1024,1024,1024,304.5,4.2,80,3.749,3.76,3.756,3.756,0,0,14.23,111.11,7359.9956794175,7.545932,6,P-GPS,
208200,2019-10-10 19:00:11,19.2833903133945,-99.1386715870801,7.545932,,,7359.9956794175,4.7646822,11.067421614,12,0,15.044,7359.9956794175,7.545932,4.7646822,11.067421614,3.131716,-3.579104,0,305.5, -8.8, -0.5,0,0,1295,1024,1024,874,304.5,4.2,80,3.749,3.76,3.756,3.756,0,0,14.23,111.11,7359.9956794175,7.545932,6,P-GPS,
208300,2019-10-10 19:00:11,19.2833918110224,-99.1386731582775,7.545932,,,7359.9956794175,4.8988986,11.8361552344,12,0,15.044,7359.9956794175,7.545932,4.8988986,11.8361552344,3.35541,-3.579104,0,305.6, -8.7, -0.5,0,0,1287,1024,1024,960,303.6,4.2,80,3.749,3.76,3.756,3.756,0,0,14.23,111.11,7359.9956794175,7.545932,6,P-GPS,
208500,2019-10-10 19:00:11,19.283394810224,-99.1386765989998,7.545932,,,7359.9956794175,5.3910254,13.445538488,12,0,15.044,7359.9956794175,7.545932,5.3910254,13.445538488,3.579104,-4.026492,0,303.4, -7.6, 0.4,0,0,1299,1024,1024,1024,303.3,4.2,80,3.749,3.76,3.756,3.756,0,0,14.23,111.11,7359.9956794175,7.545932,6,P-GPS,
208600,2019-10-10 19:00:12,19.2833962957552,-99.1386783620427,7.545932,,,7359.9956794175,5.3910254,14.257054262,12,0,15.044,7359.9956794175,7.545932,5.3910254,14.257054262,3.579104,-4.026492,0,303.2, -8.2, 0.4,0,0,1274,1024,1024,1024,303.4,4.2,80,3.749,3.76,3.756,3.756,0,0,14.23,111.11,7359.9956794175,7.545932,6,P-GPS,
208700,2019-10-10 19:00:12,19.283397882282,-99.1386801399964,7.545932,,,7359.9956794175,5.704197,15.0987865724,12,0,15.044,7359.9956794175,7.545932,5.704197,15.0987865724,3.802798,-4.250186,0,303.1, -8.1, -0.3,0,0,1271,1024,1024,1024,303.4,4.2,80,3.749,3.76,3.756,3.756,0,0,14.23,111.11,7359.9956794175,7.545932,6,P-GPS,
208800,2019-10-10 19:00:12,19.2833994373589,-99.1386819426517,7.545932,,,7359.9956794175,5.704197,15.9383863368,12,0,15.044,7359.9956794175,7.545932,5.704197,15.9383863368,3.802798,-4.250186,0,303.1, -7.1, -0.4,0,0,1270,1024,1024,1060,303.4,4.2,80,3.749,3.76,3.756,3.756,0,0,14.23,111.11,7359.9956794175,7.545932,6,P-GPS,
208900,2019-10-10 19:00:12,19.2834011400994,-99.1386838715906,7.545932,,,7359.9956794175,5.704197,16.8470149748,12,0,15.016,7359.9956794175,7.545932,5.704197,16.8470149748,3.802798,-4.250186,0,303.2, -6.5, -0.5,0,0,1291,1024,1024,1024,303.5,4.2,80,3.746,3.76,3.755,3.753,0,0,14.627,111.11,7359.9956794175,7.545932,6,P-GPS,
209000,2019-10-10 19:00:12,19.2834027457896,-99.1386857639045,7.545932,,,7359.9956794175,5.704197,17.7216541104,12,0,15.016,7359.9956794175,7.545932,5.704197,17.7216541104,3.802798,-4.250186,0,303.3, -6.4, -0.5,0,0,1270,1024,1024,1024,303.5,4.2,80,3.746,3.76,3.755,3.753,0,0,14.627,111.11,7359.9956794175,7.545932,6,P-GPS,
209100,2019-10-10 19:00:12,19.283407393083,-99.1386918504994,7.545932,,,7359.9956794175,5.8607828,20.4031174508,12,0,15.016,7359.9956794175,7.545932,5.8607828,20.4031174508,3.802798,-4.47388,0,303.3, -6.9, -0.6,0,0,1311,1024,1024,1024,303.5,4.2,80,3.746,3.76,3.755,3.753,0,0,14.627,111.11,7359.9956794175,7.545932,6,P-GPS,
209300,2019-10-10 19:00:12,19.2834109315517,-99.1386957358038,7.545932,,,7359.9956794175,6.1963238,22.2623366704,11,0,15.016,7359.9956794175,7.545932,6.1963238,22.2623366704,4.026492,-4.697574,0,303.3, -7.4, -0.3,0,0,1311,1024,1024,1024,303.5,4.2,80,3.746,3.76,3.755,3.753,0,0,14.627,111.11,7359.9956794175,7.545932,6,P-GPS,
209400,2019-10-10 19:00:12,19.2834125864324,-99.1386977683277,7.545932,,,7359.9956794175,6.1963238,23.1849088784,11,0,15.016,7359.9956794175,7.545932,6.1963238,23.1849088784,4.026492,-4.697574,0,303.2, -8.1, -0.2,0,0,1173,1024,1024,1024,303.5,4.2,80,3.746,3.76,3.755,3.753,0,0,14.627,111.11,7359.9956794175,7.545932,6,P-GPS,
209500,2019-10-10 19:00:12,19.2834142391843,-99.1387000911776,7.545932,,,7359.9956794175,6.1963238,24.1788393564,11,0,15.016,7359.9956794175,7.545932,6.1963238,24.1788393564,4.026492,-4.697574,0,303.1, -6.2, 0,0,0,1024,1024,1024,1024,303.5,4.2,80,3.746,3.76,3.755,3.753,0,0,14.627,111.11,7359.9956794175,7.545932,6,P-GPS,
209600,2019-10-10 19:00:13,19.2834159527032,-99.1387021024964,7.545932,,,7359.9956794175,6.0173686,25.111385318,11,0,15.016,7359.9956794175,7.545932,6.1963238,25.111385318,4.026492,-4.47388,0,303, -2.4, -0.1,0,0,1024,1024,1024,1024,303.5,4.2,80,3.746,3.76,3.755,3.753,0,0,14.627,111.11,7359.9956794175,7.545932,6,P-GPS,
209700,2019-10-10 19:00:13,19.283414332917,-99.1387001588412,7.545932,,,7359.9956794175,6.0173686,24.2193577304,11,0,15.016,7359.9956794175,7.545932,6.1963238,25.111385318,4.026492,-4.47388,0,302.9, 2.4, -0.5,0,0,1024,1024,1024,1024,303.5,4.2,80,3.746,3.76,3.755,3.753,0,0,14.627,111.11,7359.9956794175,7.545932,6,P-GPS,
209800,2019-10-10 19:00:13,19.2834160542242,-99.1387019884879,7.545932,,,7359.9956794175,5.704197,25.1088918796,11,0,15.016,7359.9956794175,7.545932,6.1963238,25.111385318,3.802798,-4.250186,0,302.7, 6, -0.8,0,0,1024,1024,1024,1024,303.5,4.2,80,3.746,3.76,3.755,3.753,0,0,14.627,111.11,7359.9956794175,7.545932,6,P-GPS,
209900,2019-10-10 19:00:13,19.2834176201159,-99.138703800157,7.545932,,,7359.9956794175,5.2120702,25.9545283896,12,0,15.016,7359.9956794175,7.545932,6.1963238,25.9545283896,3.579104,-3.802798,0,302.6, 9.1, -1,0,0,1024,1024,1024,1024,303.5,4.2,80,3.746,3.76,3.755,3.753,0,0,14.627,111.11,7359.9956794175,7.545932,6,P-GPS,
210000,2019-10-10 19:00:13,19.2834190321553,-99.1387053977289,7.545932,,,7359.9956794175,4.585727,26.708170146,12,0,15.016,7359.9956794175,7.545932,6.1963238,26.708170146,3.131716,-3.35541,0,302.4, 11.8, -1.4,0,0,1024,1024,1024,1024,303.5,4.2,80,3.746,3.76,3.755,3.753,0,0,14.627,111.11,7359.9956794175,7.545932,6,P-GPS,
210100,2019-10-10 19:00:13,19.283420248143,-99.1387068911662,7.545932,,,7359.9956794175,4.1159696,27.386319774,10,0,15.016,7359.9956794175,7.545932,6.1963238,27.386319774,2.908022,-2.908022,0,302.1, 14, -2.1,0,0,1024,1024,1024,1024,303.5,4.2,80,3.746,3.76,3.755,3.753,0,0,14.627,111.11,7359.9956794175,7.545932,6,P-GPS,
210200,2019-10-10 19:00:13,19.2834213697221,-99.1387080865335,7.545932,,,7359.9956794175,3.4896264,27.96670037,10,0,15.016,7359.9956794175,7.545932,6.1963238,27.96670037,2.460634,-2.460634,0,301.7, 15.4, -2.8,0,0,1024,1024,1024,840,303.5,4.2,80,3.746,3.76,3.755,3.753,0,0,14.627,111.11,7359.9956794175,7.545932,6,P-GPS,
210300,2019-10-10 19:00:13,19.2834248150127,-99.1387119499865,7.545932,,,7359.9956794175,2.8409138,29.7970153892,10,0,15.016,7359.9956794175,7.545932,6.1963238,29.7970153892,2.013246,-2.013246,0,301.3, 15.6, -3.4,0,0,1024,1024,1024,1065,302.3,4.2,80,3.746,3.76,3.755,3.753,0,0,14.627,111.11,7359.9956794175,7.545932,6,P-GPS,
210400,2019-10-10 19:00:13,19.2834256794834,-99.1387129603316,7.545932,,,7359.9956794175,2.2145706,30.266405168,10,0,15.016,7359.9956794175,7.545932,6.1963238,30.266405168,1.565858,-1.565858,0,299.1, 14.9, -4.2,0,0,1024,1024,1024,1024,302,4.2,80,3.746,3.76,3.755,3.753,0,0,14.627,111.11,7359.9956794175,7.545932,6,P-GPS,
210600,2019-10-10 19:00:14,19.2834258695452,-99.1387126534323,7.545932,,,7359.9956794175,0.9395148,30.2385508364,10,0,15.016,7359.9956794175,7.545932,6.1963238,30.266405168,0.671082,-0.671082,0,296.4, 9.6, -4.3,0,0,1228,1024,1024,1024,301,4.2,80,3.746,3.76,3.755,3.753,0,0,14.627,111.11,7359.9956794175,7.545932,6,P-GPS,
210700,2019-10-10 19:00:14,19.2834241967071,-99.1387108601483,7.545932,,,7359.9956794175,0.9395148,29.3703093388,10,0,15.016,7359.9956794175,7.545932,6.1963238,30.266405168,0.671082,-0.671082,0,295.4, 5.5, -3.6,0,0,1305,1024,1024,1024,300.1,4.2,80,3.746,3.76,3.755,3.753,0,0,14.627,111.11,7359.9956794175,7.545932,6,P-GPS,
210800,2019-10-10 19:00:14,19.2834244759019,-99.1387112080228,7.545932,,,7359.9956794175,1.11847,29.527231916,10,0,15.016,7359.9956794175,7.545932,6.1963238,30.266405168,0.671082,-0.894776,0,294.5, -4.4, -2,0,0,1267,1024,1024,1024,299.2,4.2,80,3.746,3.76,3.755,3.753,0,0,14.627,111.11,7359.9956794175,7.545932,6,P-GPS,
210900,2019-10-10 19:00:14,19.2834252400925,-99.1387119159307,7.545932,,,7359.9956794175,1.4316416,29.8963592244,10,0,15.016,7359.9956794175,7.545932,6.1963238,30.266405168,0.894776,-1.11847,0,293.4, -13.6, -1.6,0,0,1126,1024,1024,1024,299.2,4.2,80,3.746,3.76,3.755,3.753,0,0,14.627,111.11,7359.9956794175,7.545932,6,P-GPS,
211000,2019-10-10 19:00:14,19.2834259322668,-99.1387126463049,7.545932,,,7359.9956794175,1.8119214,30.2527240652,10,0,15.016,7359.9956794175,7.545932,6.1963238,30.266405168,0.894776,-1.565858,0,291.9, -14.2, -1,0,0,1024,1024,1024,1024,297.1,4.2,80,3.746,3.76,3.755,3.753,0,0,14.627,111.11,7359.9956794175,7.545932,6,P-GPS,
211100,2019-10-10 19:00:14,19.2834254018941,-99.1387126450174,7.545932,,,7359.9956794175,1.9908766,30.117947158,10,0,15.018,7359.9956794175,7.545932,6.1963238,30.266405168,0.894776,-1.789552,0,290.3, -7.3, -1.2,0,0,1024,1024,1024,1024,296.1,4.2,80,3.743,3.761,3.753,3.759,0,0,14.263,111.11,7359.9956794175,7.545932,6,P-GPS,
211200,2019-10-10 19:00:14,19.2834258177453,-99.1387135386569,7.545932,,,7359.9956794175,2.1922012,30.4451125228,10,0,15.018,7359.9956794175,7.545932,6.1963238,30.4451125228,0.894776,-2.013246,0,288.9, -0.1, -1.5,0,0,1024,1024,1024,1024,295.1,4.2,80,3.743,3.761,3.753,3.759,0,0,14.263,111.11,7359.9956794175,7.545932,6,P-GPS,
211300,2019-10-10 19:00:14,19.2834261324687,-99.1387141925177,7.545932,,,7359.9956794175,1.901399,30.68733694,10,0,15.018,7359.9956794175,7.545932,6.1963238,30.68733694,0.671082,-1.789552,0,287.7, 2, -2.4,0,0,1024,1024,1024,682,294.1,4.2,80,3.743,3.761,3.753,3.759,0,0,14.263,111.11,7359.9956794175,7.545932,6,P-GPS,
211400,2019-10-10 19:00:14,19.2834264220453,-99.1387150311789,7.545932,,,7359.9956794175,1.8342908,30.9697188388,10,0,15.018,7359.9956794175,7.545932,6.1963238,30.9697188388,0.447388,-1.789552,0,286.7, 3.3, -2.8,0,0,1024,1024,1024,936,290.4,4.2,80,3.743,3.761,3.753,3.759,0,0,14.263,111.11,7359.9956794175,7.545932,6,P-GPS,
211500,2019-10-10 19:00:14,19.283426531964,-99.1387155557458,7.545932,,,7359.9956794175,1.5882274,31.1288067704,10,0,15.018,7359.9956794175,7.545932,6.1963238,31.1288067704,0.223694,-1.565858,0,283.9, 4.2, -3.1,0,0,1024,1024,1024,1047,288.6,4.2,80,3.743,3.761,3.753,3.759,0,0,14.263,111.11,7359.9956794175,7.545932,6,P-GPS,
211600,2019-10-10 19:00:15,19.2834264572102,-99.1387158827193,7.545932,,,7359.9956794175,1.342164,31.1924550664,10,0,15.018,7359.9956794175,7.545932,6.1963238,31.1924550664,0,-1.342164,0,281.7, 4.9, -2.9,0,0,1024,1024,1024,1024,286.3,4.2,80,3.743,3.761,3.753,3.759,0,0,14.263,111.11,7359.9956794175,7.545932,6,P-GPS,
211700,2019-10-10 19:00:15,19.2834268935667,-99.1387177465884,7.545932,,,7359.9956794175,1.11847,31.7722451112,10,0,15.018,7359.9956794175,7.545932,6.1963238,31.7722451112,0,-1.11847,0,280.8, 5.1, -2.9,0,0,1024,1024,1024,1024,284.8,4.2,80,3.743,3.761,3.753,3.759,0,0,14.263,111.11,7359.9956794175,7.545932,6,P-GPS,
211800,2019-10-10 19:00:15,19.2834268785764,-99.1387182371557,7.545932,,,7359.9956794175,0.894776,31.893537766,10,0,15.018,7359.9956794175,7.545932,6.1963238,31.893537766,0,-0.894776,0,280.4, 4.9, -2.4,0,0,1024,1024,1024,1024,283.7,4.2,80,3.743,3.761,3.753,3.759,0,0,14.263,111.11,7359.9956794175,7.545932,6,P-GPS,
211900,2019-10-10 19:00:15,19.2834260869211,-99.1387182950837,7.545932,,,7359.9956794175,0.8052984,31.7151913036,10,0,15.018,7359.9956794175,7.545932,6.1963238,31.893537766,-0.447388,-0.671082,0,280.1, 5, -1.6,0,0,1024,1024,1024,1024,283,4.2,80,3.743,3.761,3.753,3.759,0,0,14.263,111.11,7359.9956794175,7.545932,6,P-GPS,
212000,2019-10-10 19:00:15,19.283425851869,-99.1387186307742,7.545932,,,7359.9956794175,0.8052984,31.7446204384,10,0,15.018,7359.9956794175,7.545932,6.1963238,31.893537766,-0.447388,-0.671082,0,280.2, 4.5, -0.1,0,0,1024,1024,1024,1024,282.5,4.2,80,3.743,3.761,3.753,3.759,0,0,14.263,111.11,7359.9956794175,7.545932,6,P-GPS,
212200,2019-10-10 19:00:15,19.2834252089599,-99.1387181221845,7.217848,,,7359.6675954175,0.6263432,31.4580390644,10,0,15.018,7359.9956794175,7.545932,6.1963238,31.893537766,-0.447388,-0.447388,0,280.3, 2.9, 1.8,0,0,1024,1024,1024,866,282,4.2,80,3.743,3.761,3.753,3.759,0,0,14.263,111.11,7359.6675954175,7.217848,6,P-GPS,
212300,2019-10-10 19:00:15,19.2834249789708,-99.1387183725705,7.217848,,,7359.6675954175,0.223694,31.4674550752,10,0,15.018,7359.9956794175,7.545932,6.1963238,31.893537766,0,-0.223694,0,280.4, 2.3, 2,0,0,1024,1024,1024,1024,280.8,4.2,80,3.743,3.761,3.753,3.759,0,0,14.263,111.11,7359.6675954175,7.217848,6,P-GPS,
212400,2019-10-10 19:00:15,19.283424892572,-99.1387184576701,7.217848,,,7359.6675954175,0,31.4687674112,10,0,15.018,7359.9956794175,7.545932,6.1963238,31.893537766,0,0,0,279.1, 1.5, 1.3,0,0,1024,1024,1024,1024,280.6,4.2,80,3.743,3.761,3.753,3.759,0,0,14.263,111.11,7359.6675954175,7.217848,6,P-GPS,
212500,2019-10-10 19:00:15,19.2834249438454,-99.1387180426381,7.217848,,,7359.6675954175,0.3131716,31.3735574344,10,0,15.018,7359.9956794175,7.545932,6.1963238,31.893537766,-0.223694,-0.223694,0,278.6, 0.5, 0.5,0,0,1024,1024,1024,1024,280.6,4.2,80,3.743,3.761,3.753,3.759,0,0,14.263,111.11,7359.6675954175,7.217848,6,P-GPS,
212600,2019-10-10 19:00:16,19.2834251835542,-99.1387180319098,7.217848,,,7359.6675954175,0.3131716,31.4286099296,10,0,15.018,7359.9956794175,7.545932,6.1963238,31.893537766,-0.223694,-0.223694,0,278.4, 0.1, 0,0,0,1024,1024,1024,1024,280.2,4.2,80,3.743,3.761,3.753,3.759,0,0,14.263,111.11,7359.6675954175,7.217848,6,P-GPS,
212700,2019-10-10 19:00:16,19.2834250546773,-99.1387177830781,7.217848,,,7359.6675954175,0.223694,31.3332359108,10,0,15.018,7359.9956794175,7.545932,6.1963238,31.893537766,-0.223694,0,0,278.3, 0, 0.2,0,0,1024,1024,1024,1024,280,4.2,80,3.743,3.761,3.753,3.759,0,0,14.263,111.11,7359.6675954175,7.217848,6,P-GPS,
212800,2019-10-10 19:00:16,19.283424915416,-99.1387178567341,7.545932,,,7359.9956794175,0.223694,31.3186361728,10,0,15.018,7359.9956794175,7.545932,6.1963238,31.893537766,-0.223694,0,0,278.3, -0.1, 0.5,0,0,1024,1024,1024,1024,279.9,4.2,80,3.743,3.761,3.753,3.759,0,0,14.263,111.11,7359.9956794175,7.545932,6,P-GPS,
212900,2019-10-10 19:00:16,19.2834242224355,-99.1387178895476,7.545932,,,7359.9956794175,0.223694,31.1606309184,10,0,15.018,7359.9956794175,7.545932,6.1963238,31.893537766,-0.223694,0,0,278.5, -0.3, 0.9,0,0,1024,1024,1024,1024,279.8,4.2,80,3.743,3.761,3.753,3.759,0,0,14.263,111.11,7359.9956794175,7.545932,6,P-GPS,
213000,2019-10-10 19:00:16,19.2834240499215,-99.1387179775388,7.545932,,,7359.9956794175,0.223694,31.1422910228,10,0,15.018,7359.9956794175,7.545932,6.1963238,31.893537766,-0.223694,0,0,278.6, -0.5, 1.5,0,0,1024,1024,1024,1024,279.8,4.2,80,3.743,3.761,3.753,3.759,0,0,14.263,111.11,7359.9956794175,7.545932,6,P-GPS,
213100,2019-10-10 19:00:16,19.2834239917768,-99.1387178722459,7.545932,,,7359.9956794175,0.223694,31.1009852472,10,0,15.018,7359.9956794175,7.545932,6.1963238,31.893537766,-0.223694,0,0,278.7, -0.4, 2,0,0,1024,1024,1024,1024,279.7,4.2,80,3.743,3.761,3.753,3.759,0,0,14.263,111.11,7359.9956794175,7.545932,6,P-GPS,
213200,2019-10-10 19:00:16,19.2834238088284,-99.1387178179068,7.545932,,,7359.9956794175,0,31.0431768464,10,0,14.956,7359.9956794175,7.545932,6.1963238,31.893537766,0,0,0,278.9, -0.4, 2,0,0,1024,1024,1024,1024,279.7,4.2,80,3.73,3.743,3.73,3.74,0,0,14.587,111.11,7359.9956794175,7.545932,6,P-GPS,
213400,2019-10-10 19:00:16,19.2834236911076,-99.1387178846919,7.545932,,,7359.9956794175,0,31.0325141164,10,0,14.956,7359.9956794175,7.545932,6.1963238,31.893537766,0,0,0,279, -0.6, 1.6,0,0,1024,1024,1024,1024,279.7,4.2,80,3.73,3.743,3.73,3.74,0,0,14.587,111.11,7359.9956794175,7.545932,6,P-GPS,
213500,2019-10-10 19:00:16,19.28342396889,-99.138717753962,7.545932,,,7359.9956794175,0,31.0647319652,10,0,14.956,7359.9956794175,7.545932,6.1963238,31.893537766,0,0,0,279, -0.4, 1.4,0,0,1024,1024,1024,764,279.3,4.2,80,3.73,3.743,3.73,3.74,0,0,14.587,111.11,7359.9956794175,7.545932,6,P-GPS,
213600,2019-10-10 19:00:17,19.2834239915071,-99.1387177888566,7.545932,,,7359.9956794175,0,31.079233278,10,0,14.956,7359.9956794175,7.545932,6.1963238,31.893537766,0,0,0,278.5, -0.1, 1.1,0,0,1024,1024,1024,1024,278.1,4.2,80,3.73,3.743,3.73,3.74,0,0,14.587,111.11,7359.9956794175,7.545932,6,P-GPS,
213700,2019-10-10 19:00:17,19.2834238310041,-99.1387177648137,7.545932,,,7359.9956794175,0,31.034613854,10,0,14.956,7359.9956794175,7.545932,6.1963238,31.893537766,0,0,0,276.7, 0, 0.8,0,0,1024,1024,1024,1024,278,4.2,80,3.73,3.743,3.73,3.74,0,0,14.587,111.11,7359.9956794175,7.545932,6,P-GPS,
213800,2019-10-10 19:00:17,19.2834237661442,-99.1387177334339,7.545932,,,7359.9956794175,0,31.0109589976,10,0,14.956,7359.9956794175,7.545932,6.1963238,31.893537766,0,0,0,276.2, 0.2, 1,0,0,1024,1024,1024,1024,277.9,4.2,80,3.73,3.743,3.73,3.74,0,0,14.587,111.11,7359.9956794175,7.545932,6,P-GPS,
213900,2019-10-10 19:00:17,19.2834238029344,-99.1387177268617,7.545932,,,7359.9956794175,0,31.018045612,10,0,14.956,7359.9956794175,7.545932,6.1963238,31.893537766,0,0,0,275.8, 0.2, 1,0,0,1024,1024,1024,1024,277.7,4.2,80,3.73,3.743,3.73,3.74,0,0,14.587,111.11,7359.9956794175,7.545932,6,P-GPS,
214000,2019-10-10 19:00:17,19.2834238144425,-99.1387177237495,7.217848,,,7359.6675954175,0,31.0199813076,10,0,14.956,7359.9956794175,7.545932,6.1963238,31.893537766,0,0,0,275.4, 0, 0.9,0,0,1024,1024,1024,1024,277.6,4.2,80,3.73,3.743,3.73,3.74,0,0,14.587,111.11,7359.6675954175,7.217848,6,P-GPS,
214100,2019-10-10 19:00:17,19.2834239304111,-99.1387176442991,7.217848,,,7359.6675954175,0,31.0270023052,10,0,14.956,7359.9956794175,7.545932,6.1963238,31.893537766,0,0,0,275, 0, 0.8,0,0,1024,1024,1024,1024,277.4,4.2,80,3.73,3.743,3.73,3.74,0,0,14.587,111.11,7359.6675954175,7.217848,6,P-GPS,
214200,2019-10-10 19:00:17,19.2834239489926,-99.1387176413647,7.217848,,,7359.6675954175,0,31.0307096544,10,0,14.956,7359.9956794175,7.545932,6.1963238,31.893537766,0,0,0,274.6, -0.1, 0.6,0,0,1024,1024,1024,1024,277.1,4.2,80,3.73,3.743,3.73,3.74,0,0,14.587,111.11,7359.6675954175,7.217848,6,P-GPS,
214300,2019-10-10 19:00:17,19.2834239599583,-99.1387176418804,7.217848,,,7359.6675954175,0,31.03346556,11,0,14.924,7359.9956794175,7.545932,6.1963238,31.893537766,0,0,0,274.2, -0.1, 0.5,0,0,1024,1024,1024,1024,276.9,4.2,80,3.722,3.737,3.731,3.734,0,0,15.243,111.11,7359.6675954175,7.217848,6,P-GPS,
214500,2019-10-10 19:00:17,19.2834243489658,-99.1387170604742,7.217848,,,7359.6675954175,0,30.9762805188,10,0,14.924,7359.9956794175,7.545932,6.1963238,31.893537766,0,0,0,273.5, -0.8, 0.3,0,0,1313,1024,1024,1024,276.5,4.2,80,3.722,3.737,3.731,3.734,0,0,15.243,111.11,7359.6675954175,7.217848,6,P-GPS,
214600,2019-10-10 19:00:18,19.283424351264,-99.1387170907,7.545932,,,7359.9956794175,0,30.9846466608,10,0,14.924,7359.9956794175,7.545932,6.1963238,31.893537766,0,0,0,273.3, -6, 0.3,0,0,1024,1024,1024,1024,276.5,4.2,80,3.722,3.737,3.731,3.734,0,0,15.243,111.11,7359.9956794175,7.545932,6,P-GPS,
214700,2019-10-10 19:00:18,19.2834245191148,-99.1387169207558,7.545932,,,7359.9956794175,0.223694,30.9813658208,10,0,14.924,7359.9956794175,7.545932,6.1963238,31.893537766,0,-0.223694,0,273, -12.8, -0.4,0,0,1024,1024,1024,1024,276.1,4.2,80,3.722,3.737,3.731,3.734,0,0,15.243,111.11,7359.9956794175,7.545932,6,P-GPS,
214800,2019-10-10 19:00:18,19.2834245000594,-99.1387171486958,7.545932,,,7359.9956794175,0.447388,31.0355324892,10,0,14.924,7359.9956794175,7.545932,6.1963238,31.893537766,0,-0.447388,-0.223694,272.7, -6.7, -0.4,0,0,1024,1024,1024,1024,276,4.2,80,3.722,3.737,3.731,3.734,0,0,15.243,111.11,7359.9956794175,7.545932,6,P-GPS,
214900,2019-10-10 19:00:18,19.2834244827258,-99.1387174133588,7.545932,,,7359.9956794175,0.447388,31.099738528,10,0,14.924,7359.9956794175,7.545932,6.1963238,31.893537766,0,-0.447388,-0.223694,272.6, -0.9, -0.7,0,0,1024,1024,1024,1024,275.8,4.2,80,3.722,3.737,3.731,3.734,0,0,15.243,111.11,7359.9956794175,7.545932,6,P-GPS,
215000,2019-10-10 19:00:18,19.2834245491428,-99.1387175757574,7.545932,,,7359.9956794175,0.447388,31.1577437792,10,0,14.924,7359.9956794175,7.545932,6.1963238,31.893537766,0,-0.447388,0,272.5, 0.6, -1.1,0,0,1024,1024,1024,1024,275.6,4.2,80,3.722,3.737,3.731,3.734,0,0,15.243,111.11,7359.9956794175,7.545932,6,P-GPS,
215100,2019-10-10 19:00:18,19.2834244736025,-99.1387179036961,7.545932,,,7359.9956794175,0.447388,31.2245088732,10,0,14.924,7359.9956794175,7.545932,6.1963238,31.893537766,0,-0.447388,0,272.5, 1.2, -1.4,0,0,1024,1024,1024,1024,275.5,4.2,80,3.722,3.737,3.731,3.734,0,0,15.243,111.11,7359.9956794175,7.545932,6,P-GPS,
215200,2019-10-10 19:00:18,19.2834244325316,-99.1387180874742,7.545932,,,7359.9956794175,0.223694,31.2623697668,10,0,14.924,7359.9956794175,7.545932,6.1963238,31.893537766,0,-0.223694,0,272.4, 1.6, -1.2,0,0,1024,1024,1024,1024,275.3,4.2,80,3.722,3.737,3.731,3.734,0,0,15.243,111.11,7359.9956794175,7.545932,6,P-GPS,
215300,2019-10-10 19:00:18,19.2834245512682,-99.1387183329562,7.545932,,,7359.9956794175,0,31.3545941792,10,0,14.924,7359.9956794175,7.545932,6.1963238,31.893537766,0,0,0,272.5, 1.6, -1.2,0,0,1024,1024,1024,1024,275.2,4.2,80,3.722,3.737,3.731,3.734,0,0,15.243,111.11,7359.9956794175,7.545932,6,P-GPS,
215500,2019-10-10 19:00:18,19.283424152367,-99.1387184130062,7.545932,,,7359.9956794175,0.223694,31.2802175364,10,0,14.937,7359.9956794175,7.545932,6.1963238,31.893537766,-0.223694,0,0,272.5, 1.1, -1.1,0,0,1024,1024,1024,1497,275.4,4.2,80,3.724,3.742,3.738,3.739,0,0,14.663,111.11,7359.9956794175,7.545932,6,P-GPS,
215600,2019-10-10 19:00:19,19.2834240462821,-99.1387184509989,7.545932,,,7359.9956794175,0.223694,31.2648632052,10,0,14.937,7359.9956794175,7.545932,6.1963238,31.893537766,-0.223694,0,0,273.1, 0.8, -0.3,0,0,1024,1024,1024,1189,276.7,4.2,80,3.724,3.742,3.738,3.739,0,0,14.663,111.11,7359.9956794175,7.545932,6,P-GPS,
215700,2019-10-10 19:00:19,19.2834240271636,-99.1387181641704,7.545932,,,7359.9956794175,0.223694,31.1854668772,10,0,14.937,7359.9956794175,7.545932,6.1963238,31.893537766,-0.223694,0,0,277.3, 1.3, 0.5,0,0,1024,1024,1024,1024,276.7,4.2,80,3.724,3.742,3.738,3.739,0,0,14.663,111.11,7359.9956794175,7.545932,6,P-GPS,
215800,2019-10-10 19:00:19,19.2834238748351,-99.1387182026042,7.545932,,,7359.9956794175,0.223694,31.1592201572,10,0,14.937,7359.9956794175,7.545932,6.1963238,31.893537766,-0.223694,0,0,281.4, 0.9, 0.8,0,0,1024,1024,1024,1024,278,4.2,80,3.724,3.742,3.738,3.739,0,0,14.663,111.11,7359.9956794175,7.545932,6,P-GPS,
215900,2019-10-10 19:00:19,19.2834237589321,-99.1387178833338,7.545932,,,7359.9956794175,0.223694,31.0483277652,10,0,14.937,7359.9956794175,7.545932,6.1963238,31.893537766,-0.223694,0,0,282.5, 0.5, 1.3,0,0,1171,1024,1024,1024,279.7,4.2,80,3.724,3.742,3.738,3.739,0,0,14.663,111.11,7359.9956794175,7.545932,6,P-GPS,
216000,2019-10-10 19:00:19,19.2834235783088,-99.1387179463683,7.545932,,,7359.9956794175,0.223694,31.0217857696,10,0,14.937,7359.9956794175,7.545932,6.1963238,31.893537766,-0.223694,0,0,283.3, 0.1, 1.6,0,0,1497,1024,1024,1024,280.8,4.2,80,3.724,3.742,3.738,3.739,0,0,14.663,111.11,7359.9956794175,7.545932,6,P-GPS,
216100,2019-10-10 19:00:19,19.2834231026247,-99.1387174465237,7.545932,,,7359.9956794175,0,30.7781505912,10,0,14.937,7359.9956794175,7.545932,6.1963238,31.893537766,0,0,0,283.6, -5.6, 1,0,0,1422,1015,1024,1024,281.6,4.2,80,3.724,3.742,3.738,3.739,0,0,14.663,111.11,7359.9956794175,7.545932,6,P-GPS,
216200,2019-10-10 19:00:19,19.2834230562243,-99.138717538921,7.545932,,,7359.9956794175,0.223694,30.7912739512,10,0,14.937,7359.9956794175,7.545932,6.1963238,31.893537766,0,-0.223694,0,283.8, -17.7, 0,0,0,1024,1024,1024,1024,282.2,4.2,80,3.724,3.742,3.738,3.739,0,0,14.663,111.11,7359.9956794175,7.545932,6,P-GPS,
216300,2019-10-10 19:00:19,19.2834230374156,-99.1387175323834,7.545932,,,7359.9956794175,0.671082,30.785105972,10,0,14.937,7359.9956794175,7.545932,6.1963238,31.893537766,0,-0.671082,0,283.9, -19.4, 0,0,0,1024,1024,1024,1024,282.5,4.2,80,3.724,3.742,3.738,3.739,0,0,14.663,111.11,7359.9956794175,7.545932,6,P-GPS,
216400,2019-10-10 19:00:19,19.2834230957097,-99.1387179793432,7.545932,,,7359.9956794175,1.11847,30.916011488,10,0,14.937,7359.9956794175,7.545932,6.1963238,31.893537766,0,-1.11847,0,284, -6.5, 0.8,0,0,1024,1024,1024,1231,282.7,4.2,80,3.724,3.742,3.738,3.739,0,0,14.663,111.11,7359.9956794175,7.545932,6,P-GPS,
216500,2019-10-10 19:00:19,19.2834233513255,-99.1387186226308,7.545932,,,7359.9956794175,1.11847,31.1452437788,10,0,14.944,7359.9956794175,7.545932,6.1963238,31.893537766,0,-1.11847,0,284.2, 2.1, 1.5,0,0,1024,1024,1024,1499,284.5,4.2,80,3.721,3.735,3.732,3.735,0,0,14.398,111.11,7359.9956794175,7.545932,6,P-GPS,
216600,2019-10-10 19:00:20,19.2834233511178,-99.1387189067422,7.545932,,,7359.9956794175,0.894776,31.2199156972,10,0,14.944,7359.9956794175,7.545932,6.1963238,31.893537766,0,-0.894776,0,286.4, 4, 1.4,0,0,1024,1024,978,1483,287.9,4.2,80,3.721,3.735,3.732,3.735,0,0,14.398,111.11,7359.9956794175,7.545932,6,P-GPS,
216700,2019-10-10 19:00:20,19.2834231205309,-99.1387195743636,7.545932,,,7359.9956794175,0.671082,31.3421597956,11,0,14.944,7359.9956794175,7.545932,6.1963238,31.893537766,0,-0.671082,0,292.8, 4.7, 1.5,0,0,1024,1024,1024,1024,290.6,4.2,80,3.721,3.735,3.732,3.735,0,0,14.398,111.11,7359.9956794175,7.545932,6,P-GPS,
216900,2019-10-10 19:00:20,19.2834232822836,-99.1387195396907,7.217848,,,7359.6675954175,0,31.3707687204,10,0,14.944,7359.9956794175,7.545932,6.1963238,31.893537766,0,0,0,304.8, 2.6, 1.2,0,0,1548,1024,1024,1024,300.8,4.2,80,3.721,3.735,3.732,3.735,0,0,14.398,111.11,7359.6675954175,7.217848,6,P-GPS,
217000,2019-10-10 19:00:20,19.283423314515,-99.1387195675267,7.217848,,,7359.6675954175,0,31.385663734,10,0,14.944,7359.9956794175,7.545932,6.1963238,31.893537766,0,0,0,306.3, -0.8, 1.1,0,0,1684,1024,1024,1024,303.5,4.2,80,3.721,3.735,3.732,3.735,0,0,14.398,111.11,7359.6675954175,7.217848,6,P-GPS,
217100,2019-10-10 19:00:20,19.2834231241248,-99.1387199301464,7.217848,,,7359.6675954175,0.4921268,31.4372713472,11,0,14.944,7359.9956794175,7.545932,6.1963238,31.893537766,0.223694,-0.447388,0,307, -15.2, 0.7,0,0,1672,1024,1024,1024,305,4.2,80,3.721,3.735,3.732,3.735,0,0,14.398,111.11,7359.6675954175,7.217848,6,P-GPS,
217200,2019-10-10 19:00:20,19.2834235298125,-99.1387201272085,7.545932,,,7359.9956794175,1.11847,31.5840233204,11,0,14.944,7359.9956794175,7.545932,6.1963238,31.893537766,0.671082,-0.894776,0,307.4, -24.8, 0.1,0,0,1332,1024,1024,1024,305.8,4.2,80,3.721,3.735,3.732,3.735,0,0,14.398,111.11,7359.9956794175,7.545932,6,P-GPS,
217300,2019-10-10 19:00:20,19.2834239636931,-99.1387207705003,7.545932,,,7359.9956794175,2.1027236,31.8555784472,12,0,14.944,7359.9956794175,7.545932,6.1963238,31.893537766,1.11847,-1.789552,0,307.6, -26.2, 0.1,0,0,1024,1024,1024,1024,306.3,4.2,80,3.721,3.735,3.732,3.735,0,0,14.398,111.11,7359.9956794175,7.545932,6,P-GPS,
217400,2019-10-10 19:00:20,19.2834245706409,-99.1387216710404,7.545932,,,7359.9956794175,2.5501116,32.2356637612,12,0,14.944,7359.9956794175,7.545932,6.1963238,32.2356637612,1.565858,-2.013246,0,307.7, -16.1, 0.5,0,0,1024,1024,1024,1024,306.6,4.2,80,3.721,3.735,3.732,3.735,0,0,14.398,111.11,7359.9956794175,7.545932,6,P-GPS,
217500,2019-10-10 19:00:20,19.2834248727361,-99.1387229360719,7.545932,,,7359.9956794175,2.7290668,32.6419629868,12,0,14.944,7359.9956794175,7.545932,6.1963238,32.6419629868,1.565858,-2.23694,0,308, 0.7, 1.7,0,0,1024,1024,1024,1024,306.9,4.2,80,3.721,3.735,3.732,3.735,0,0,14.398,111.11,7359.9956794175,7.545932,6,P-GPS,
217600,2019-10-10 19:00:21,19.2834255334293,-99.1387239236105,7.217848,,,7359.6675954175,2.4158952,33.05774384,12,0,14.911,7359.9956794175,7.545932,6.1963238,33.05774384,1.342164,-2.013246,0,308.3, 6.2, 1.4,0,0,1024,1024,1318,1024,307.1,4.2,78,3.706,3.726,3.728,3.727,0,0,15.055,111.11,7359.6675954175,7.217848,6,P-GPS,
217700,2019-10-10 19:00:21,19.2834262636176,-99.1387247347651,7.217848,,,7359.6675954175,1.7448132,33.442586372,12,0,14.911,7359.9956794175,7.545932,6.1963238,33.442586372,1.11847,-1.342164,0.223694,308.4, 7.7, 1.1,0,0,1024,1024,1668,1024,307.3,4.2,78,3.706,3.726,3.728,3.727,0,0,15.055,111.11,7359.6675954175,7.217848,6,P-GPS,
217800,2019-10-10 19:00:21,19.2834264173614,-99.138725151406,7.217848,,,7359.6675954175,1.4316416,33.58923992,12,0,14.911,7359.9956794175,7.545932,6.1963238,33.58923992,0.894776,-1.11847,0,308.4, 8.1, 1,0,0,1024,1024,1684,1024,307.4,4.2,78,3.706,3.726,3.728,3.727,0,0,15.055,111.11,7359.6675954175,7.217848,6,P-GPS,
217900,2019-10-10 19:00:21,19.2834268528545,-99.1387256115017,7.217848,,,7359.6675954175,0.9395148,33.812665124,11,0,14.911,7359.9956794175,7.545932,6.1963238,33.812665124,0.671082,-0.671082,-0.671082,308.1, 8.1, 0.8,0,0,1024,1024,1672,1024,307.4,4.2,78,3.706,3.726,3.728,3.727,0,0,15.055,111.11,7359.6675954175,7.217848,6,P-GPS,
218200,2019-10-10 19:00:21,19.2834285164589,-99.1387270870064,8.2021,,,7360.6518474175,0.3131716,34.590552288,10,0,14.911,7360.6518474175,8.2021,6.1963238,34.590552288,0.223694,0.223694,-3.579104,306.6, 5, 0.3,0,0,1024,1024,1095,1024,307.4,4.2,78,3.706,3.726,3.728,3.727,0,0,15.055,111.11,7360.6518474175,8.2021,6,P-GPS,
218300,2019-10-10 19:00:21,19.2834282570496,-99.1387262662895,8.858268,,,7361.3080154175,0,34.312337056,10,0,14.911,7361.3080154175,8.858268,6.1963238,34.590552288,0,0,-4.250186,306.7, 4.1, -0.4,0,0,1024,1024,1024,1024,307.4,4.2,78,3.706,3.726,3.728,3.727,0,0,15.055,111.11,7361.3080154175,8.858268,6,P-GPS,
218400,2019-10-10 19:00:21,19.283428588637,-99.1387265427781,9.514436,,,7361.9641834175,0.223694,34.462927612,10,0,14.911,7361.9641834175,9.514436,6.1963238,34.590552288,0,0.223694,-4.026492,307.4, 2.4, -1,0,0,1024,1024,1024,1024,307.4,4.2,78,3.706,3.726,3.728,3.727,0,0,15.055,111.11,7361.9641834175,9.514436,6,P-GPS,
218500,2019-10-10 19:00:21,19.2834281045827,-99.138725822095,10.170604,,,7362.6203514175,0.3131716,34.159121828,11,0,14.911,7362.6203514175,10.170604,6.1963238,34.590552288,0.223694,0.223694,-3.35541,308.4, 1, -1.3,0,0,1024,1024,1348,1024,307.4,4.2,78,3.706,3.726,3.728,3.727,0,0,15.055,111.11,7362.6203514175,10.170604,6,P-GPS,
218600,2019-10-10 19:00:22,19.2834282104143,-99.1387256666966,10.498688,,,7362.9484354175,0.3131716,34.142717628,11,0,14.911,7362.9484354175,10.498688,6.1963238,34.590552288,0.223694,0.223694,-2.684328,309.2, 0.1, -1.8,0,0,1024,1024,1502,1024,307.6,4.2,78,3.706,3.726,3.728,3.727,0,0,15.055,111.11,7362.9484354175,10.498688,6,P-GPS,
218700,2019-10-10 19:00:22,19.2834281437587,-99.1387251821244,10.826772,,,7363.2765194175,0.4921268,33.99934492,10,0,14.911,7363.2765194175,10.826772,6.1963238,34.590552288,0.223694,0.447388,-2.23694,309.6, -0.3, -2.4,0,0,1024,1024,1503,1024,307.8,4.2,78,3.706,3.726,3.728,3.727,0,0,15.055,111.11,7363.2765194175,10.826772,6,P-GPS,
218800,2019-10-10 19:00:22,19.283428619972,-99.1387250999954,11.154856,,,7363.6046034175,0.223694,34.089896104,10,0,14.816,7363.6046034175,11.154856,6.1963238,34.590552288,0,0.223694,-2.460634,309.4, -0.3, -3.3,0,0,1024,1024,1481,1024,307.9,4.2,78,3.691,3.708,3.703,3.696,0,0,15.86,111.11,7363.6046034175,11.154856,6,P-GPS,
219100,2019-10-10 19:00:22,19.2834274300665,-99.1387246004647,12.795276,,,7365.2450234175,0.447388,33.678478768,10,0,14.816,7365.2450234175,12.795276,6.1963238,34.590552288,-0.447388,0,-4.47388,307.4, -0.6, -1,0,0,1024,1024,1464,1024,308,4.2,78,3.691,3.708,3.703,3.696,0,0,15.86,111.11,7365.2450234175,12.795276,6,P-GPS,
219200,2019-10-10 19:00:22,19.2834271654707,-99.1387245274856,13.451444,,,7365.9011914175,0.447388,33.59744202,10,0,14.816,7365.9011914175,13.451444,6.1963238,34.590552288,-0.447388,0,-4.921268,307.2, -1.4, 0.6,0,0,1024,1024,1443,1024,308,4.2,78,3.691,3.708,3.703,3.696,0,0,15.86,111.11,7365.9011914175,13.451444,6,P-GPS,
219300,2019-10-10 19:00:22,19.2834269033744,-99.1387242456344,14.435696,,,7366.8854434175,0.4921268,33.461615244,10,0,14.816,7366.8854434175,14.435696,6.1963238,34.590552288,-0.447388,0.223694,-5.816044,307.3, -2.3, 1.5,0,0,1024,1024,1385,1024,308,4.2,78,3.691,3.708,3.703,3.696,0,0,15.86,111.11,7366.8854434175,14.435696,6,P-GPS,
219400,2019-10-10 19:00:22,19.2834263723636,-99.138724090965,15.091864,,,7367.5416114175,0.223694,33.296917076,10,0,14.816,7367.5416114175,15.091864,6.1963238,34.590552288,-0.223694,0,-5.816044,307.5, -3.6, 1.7,0,0,1024,1024,1391,1024,308,4.2,78,3.691,3.708,3.703,3.696,0,0,15.86,111.11,7367.5416114175,15.091864,6,P-GPS,
219500,2019-10-10 19:00:22,19.2834263206627,-99.1387238288683,16.076116,,,7368.5258634175,0.3131716,33.21522416,10,0,14.816,7368.5258634175,16.076116,6.1963238,34.590552288,-0.223694,0.223694,-5.144962,308.1, -4.7, 1.6,0,0,1024,1024,1401,1024,308,4.2,78,3.691,3.708,3.703,3.696,0,0,15.86,111.11,7368.5258634175,16.076116,6,P-GPS,
219700,2019-10-10 19:00:23,19.2834263739911,-99.1387234959647,17.388452,,,7369.8381994175,0,33.139436756,10,0,14.816,7369.8381994175,17.388452,6.1963238,34.590552288,0,0,-4.921268,308.9, -4.4, 0.2,0,0,1024,1024,1396,1024,308,4.2,78,3.691,3.708,3.703,3.696,0,0,15.86,111.11,7369.8381994175,17.388452,6,P-GPS,
219800,2019-10-10 19:00:23,19.2834263599954,-99.1387234680483,18.04462,,,7370.4943674175,0,33.128938068,10,0,14.816,7370.4943674175,18.04462,6.1963238,34.590552288,0,0,-4.921268,309.3, -4, -0.4,0,0,1024,1024,1345,1024,308.1,4.2,78,3.691,3.708,3.703,3.696,0,0,15.86,111.11,7370.4943674175,18.04462,6,P-GPS,
219900,2019-10-10 19:00:23,19.2834263606321,-99.1387233440148,18.700788,,,7371.1505354175,0,33.096129668,10,0,14.816,7371.1505354175,18.700788,6.1963238,34.590552288,0,0,-4.697574,309.6, -3.5, -0.7,0,0,1024,1024,1355,1024,308.1,4.2,78,3.691,3.708,3.703,3.696,0,0,15.86,111.11,7371.1505354175,18.700788,6,P-GPS,
220000,2019-10-10 19:00:23,19.2834262424488,-99.1387232851738,19.356956,,,7371.8067034175,0,33.053150664,10,0,14.816,7371.8067034175,19.356956,6.1963238,34.590552288,0,0,-4.697574,309.8, -3.4, -0.7,0,0,1024,1024,1389,1024,308.1,4.2,78,3.691,3.708,3.703,3.696,0,0,15.86,111.11,7371.8067034175,19.356956,6,P-GPS,
220100,2019-10-10 19:00:23,19.2834263984678,-99.1387233637851,20.013124,,,7372.4628714175,0,33.11023728,10,0,14.782,7372.4628714175,20.013124,6.1963238,34.590552288,0,0,-4.250186,309.8, -3.4, -0.5,0,0,1024,1024,1373,1024,308.2,4.2,78,3.677,3.671,3.663,3.664,0,0,18.864,111.11,7372.4628714175,20.013124,6,P-GPS,
220200,2019-10-10 19:00:23,19.2834264610786,-99.1387234847901,20.669292,,,7373.1190394175,0.223694,33.156825208,10,0,14.782,7373.1190394175,20.669292,6.1963238,34.590552288,0,-0.223694,-4.250186,309.7, -2.9, -0.4,0,0,1024,1024,1394,1024,308.2,4.2,78,3.677,3.671,3.663,3.664,0,0,18.864,111.11,7373.1190394175,20.669292,6,P-GPS,
220200,2019-10-10 19:00:23,19.2834264610786,-99.1387234847901,20.669292,,,7373.1190394175,0.223694,33.156825208,10,0,14.782,7373.1190394175,20.669292,6.1963238,34.590552288,0,-0.223694,-4.250186,309.7, -2.9, -0.4,0,0,1024,1024,1403,1024,308.3,4.2,78,3.677,3.671,3.663,3.664,0,0,18.864,111.11,7373.1190394175,20.669292,6,P-GPS,
