time(millisecond),datetime(utc),latitude,longitude,height_above_takeoff(feet),height_above_ground_at_drone_location(feet),ground_elevation_at_drone_location(feet),altitude_above_seaLevel(feet),speed(mph),distance(feet),satellites,gpslevel,voltage(v),max_altitude(feet),max_ascent(feet),max_speed(mph),max_distance(feet), xSpeed(mph), ySpeed(mph), zSpeed(mph), compass_heading(degrees), pitch(degrees), roll(degrees),isPhoto,isVideo,rc_elevator,rc_aileron,rc_throttle,rc_rudder,gimbal_heading(degrees),gimbal_pitch(degrees),battery_percent,voltageCell1,voltageCell2,voltageCell3,voltageCell4,voltageCell5,voltageCell6,current(A),battery_temperature(f),altitude(feet),ascent(feet),flycStateRaw,flycState,message
409100,10/10/2019 18:50,19.28332065,-99.13858417,0,Available with any HD 360 subscription,Available with any HD 360 subscription,7351.800949,0,0,9,0,0,7351.800949,0,0,0,0,0,0,131.9,-0.1,0.1,0,0,364,364,364,1627,136.3,-37.6,50,3.832,3.827,3.822,3.826,0,0,0,138.11,7351.800949,0,6,P-GPS,
409200,10/10/2019 18:50,19.28332061,-99.13858422,0,,,7351.800949,0,0.025289633,9,0,0,7351.800949,0,0,0.025289633,0,0,0,131.9,-0.1,0,0,0,364,364,364,1630,136.4,-37.6,50,3.832,3.827,3.822,3.826,0,0,0,138.11,7351.800949,0,6,P-GPS,
409300,10/10/2019 18:50,19.28332051,-99.13858422,0,,,7351.800949,0,0.055302823,9,0,0,7351.800949,0,0,0.055302823,0,0,0,131.9,-0.1,0.1,0,0,364,364,364,1634,136.5,-37.6,50,3.832,3.827,3.822,3.826,0,0,0,138.11,7351.800949,0,6,P-GPS,
409400,10/10/2019 18:50,19.28332051,-99.13858422,0,,,7351.800949,0,0.054860566,9,0,0,7351.800949,0,0,0.055302823,0,0,0,131.9,-0.1,0.1,0,0,364,364,364,1636,136.5,-37.6,50,3.832,3.827,3.822,3.826,0,0,0,138.11,7351.800949,0,6,P-GPS,
409500,10/10/2019 18:50,19.28332055,-99.13858402,0,,,7351.800949,0,0.06074869,10,0,0,7351.800949,0,0,0.06074869,0,0,0,132,-0.1,0.1,0,0,364,364,364,1594,136.5,-37.6,50,3.832,3.827,3.822,3.826,0,0,0,138.11,7351.800949,0,6,P-GPS,
409600,10/10/2019 18:50,19.28332055,-99.13858402,0,,,7351.800949,0,0.061524608,10,0,0,7351.800949,0,0,0.061524608,0,0,0,131.9,-0.1,0,0,0,364,364,364,1606,136.5,-37.6,50,3.832,3.827,3.822,3.826,0,0,0,138.11,7351.800949,0,6,P-GPS,
409700,10/10/2019 18:50,19.28332055,-99.13858402,0,,,7351.800949,0,0.062203414,10,0,0,7351.800949,0,0,0.062203414,0,0,0,131.9,-0.1,0,0,0,364,364,364,1574,136.5,-37.6,50,3.832,3.827,3.822,3.826,0,0,0,138.11,7351.800949,0,6,P-GPS,
409800,10/10/2019 18:50,19.28332057,-99.13858402,0,,,7351.800949,0,0.058941603,10,0,0,7351.800949,0,0,0.062203414,0,0,0,131.9,-0.1,0.1,0,0,364,364,364,1548,136.6,-37.6,50,3.832,3.827,3.822,3.826,0,0,0,138.11,7351.800949,0,6,P-GPS,
409900,10/10/2019 18:50,19.28332077,-99.13858372,0,,,7351.800949,0,0.160684716,10,0,15.307,7351.800949,0,0,0.160684716,0,0,0,131.9,-0.1,0.1,0,0,364,364,364,1559,136.5,-37.6,50,3.832,3.827,3.822,3.826,0,0,0.923,138.11,7351.800949,0,6,P-GPS,Setting new Return-To-Home altitude to 30m (98 ft). Data Recorder File Index is 411
410000,10/10/2019 18:50,19.28332077,-99.13858372,0,,,7351.800949,0,0.161148627,10,0,15.307,7351.800949,0,0,0.161148627,0,0,0,131.9,-0.1,0,0,0,364,364,364,1550,136.6,-37.6,50,3.832,3.827,3.822,3.826,0,0,0.923,138.11,7351.800949,0,6,P-GPS,
410100,10/10/2019 18:50,19.28332078,-99.13858371,0,,,7351.800949,0,0.16514305,10,0,15.307,7351.800949,0,0,0.16514305,0,0,0,131.9,-0.1,0,0,0,364,364,364,1562,136.6,-37.6,50,3.832,3.827,3.822,3.826,0,0,0.923,138.11,7351.800949,0,6,P-GPS,
410200,10/10/2019 18:50,19.28332078,-99.13858371,0,,,7351.800949,0,0.165928483,10,0,15.307,7351.800949,0,0,0.165928483,0,0,0,131.9,-0.1,0,0,0,364,364,364,1576,136.7,-37.6,50,3.832,3.827,3.822,3.826,0,0,0.923,138.11,7351.800949,0,6,P-GPS,
410300,10/10/2019 18:50,19.28332098,-99.1385836,0,,,7351.800949,0,0.229487868,10,0,15.307,7351.800949,0,0,0.229487868,0,0,0,131.9,-0.1,0,0,0,364,364,364,1572,136.6,-37.6,50,3.832,3.827,3.822,3.826,0,0,0.923,138.11,7351.800949,0,6,P-GPS,
410400,10/10/2019 18:50,19.28332099,-99.13858363,0,,,7351.800949,0,0.223702435,10,0,15.307,7351.800949,0,0,0.229487868,0,0,0,131.9,-0.1,0.1,0,0,364,364,364,1552,136.6,-37.6,50,3.832,3.827,3.822,3.826,0,0,0.923,138.11,7351.800949,0,6,P-GPS,
410500,10/10/2019 18:50,19.28332099,-99.13858353,0,,,7351.800949,0,0.253140756,11,0,15.307,7351.800949,0,0,0.253140756,0,0,0,131.9,-0.1,0.1,0,0,364,364,364,1620,136.5,-37.6,50,3.832,3.827,3.822,3.826,0,0,0.923,138.11,7351.800949,0,6,P-GPS,
410600,10/10/2019 18:50,19.283321,-99.13858353,0,,,7351.800949,0,0.253618446,11,0,15.307,7351.800949,0,0,0.253618446,0,0,0,131.9,-0.1,0,0,0,364,364,364,1556,136.5,-37.6,50,3.832,3.827,3.822,3.826,0,0,0.923,138.11,7351.800949,0,6,P-GPS,
410700,10/10/2019 18:50,19.28332111,-99.13858349,0,,,7351.800949,0,0.287647647,11,0,15.307,7351.800949,0,0,0.287647647,0,0,0,131.9,-0.2,0,0,0,364,364,364,1512,136.5,-37.6,50,3.832,3.827,3.822,3.826,0,0,0.923,138.11,7351.800949,0,6,P-GPS,
410800,10/10/2019 18:50,19.28332111,-99.13858349,0,,,7351.800949,0,0.288566282,11,0,15.307,7351.800949,0,0,0.288566282,0,0,0,131.9,-0.2,0,0,0,364,364,364,1433,136.4,-37.6,50,3.832,3.827,3.822,3.826,0,0,0.923,138.11,7351.800949,0,6,P-GPS,
410900,10/10/2019 18:50,19.28332101,-99.13858359,0,,,7351.800949,0,0.240489509,11,0,15.307,7351.800949,0,0,0.288566282,0,0,0,131.9,-0.1,0.1,0,0,364,364,364,1405,135.8,-37.6,50,3.832,3.827,3.822,3.826,0,0,0.926,138.11,7351.800949,0,6,P-GPS,
411000,10/10/2019 18:50,19.28332102,-99.13858358,0,,,7351.800949,0,0.241629601,11,0,15.307,7351.800949,0,0,0.288566282,0,0,0,131.9,-0.1,0.1,0,0,364,364,364,1442,136.2,-37.6,50,3.832,3.827,3.822,3.826,0,0,0.926,138.11,7351.800949,0,6,P-GPS,
411100,10/10/2019 18:50,19.28332101,-99.13858361,0,,,7351.800949,0,0.232676845,11,0,15.307,7351.800949,0,0,0.288566282,0,0,0,132,-0.1,0,0,0,364,364,364,1596,136,-37.6,50,3.832,3.827,3.822,3.826,0,0,0.926,138.11,7351.800949,0,10,Assisted_Takeoff,
411200,10/10/2019 18:50,19.28332101,-99.13858361,0,,,7351.800949,0,0.233442265,11,0,15.307,7351.800949,0,0,0.288566282,0,0,0,131.9,0,0,0,0,364,364,364,1605,136.4,-37.6,50,3.832,3.827,3.822,3.826,0,0,0.926,138.11,7351.800949,0,10,Assisted_Takeoff,Return-to-Home Altitude:98FT
411300,10/10/2019 18:50,19.28332091,-99.1385837,0,,,7351.800949,0,0.185671594,11,0,15.307,7351.800949,0,0,0.288566282,0,0,0,131.9,0,0,0,0,364,364,364,1609,136.5,-37.6,50,3.832,3.827,3.822,3.826,0,0,0.926,138.11,7351.800949,0,10,Assisted_Takeoff,
411400,10/10/2019 18:50,19.28332088,-99.13858368,0,,,7351.800949,0,0.18689666,11,0,15.307,7351.800949,0,0,0.288566282,0,0,0,131.9,0,0,0,0,364,364,364,1616,136.5,-37.6,50,3.832,3.827,3.822,3.826,0,0,0.926,138.11,7351.800949,0,10,Assisted_Takeoff,
411500,10/10/2019 18:50,19.28332078,-99.13858378,0,,,7351.800949,0,0.14170276,11,0,15.307,7351.800949,0,0,0.288566282,0,0,0,131.9,0,0,0,0,364,364,364,1445,136.6,-37.6,50,3.832,3.827,3.822,3.826,0,0,0.926,138.11,7351.800949,0,10,Assisted_Takeoff,
411600,10/10/2019 18:50,19.28332078,-99.13858378,0,,,7351.800949,0,0.14228839,11,0,15.307,7351.800949,0,0,0.288566282,0,0,0,131.9,0,0,0,0,502,571,572,1386,136.5,-37.6,50,3.832,3.827,3.822,3.826,0,0,0.926,138.11,7351.800949,0,10,Assisted_Takeoff,
411700,10/10/2019 18:50,19.28332077,-99.13858382,0,,,7351.800949,0,0.127372707,11,0,15.307,7351.800949,0,0,0.288566282,0,0,0,131.9,0,0,0,0,502,571,572,1386,136,-37.6,50,3.832,3.827,3.822,3.826,0,0,0.926,138.11,7351.800949,0,10,Assisted_Takeoff,
411800,10/10/2019 18:50,19.28332076,-99.13858381,0,,,7351.800949,0,0.128308403,11,0,15.307,7351.800949,0,0,0.288566282,0,0,0,131.9,0,0,0,0,1024,1024,1024,1024,134.8,-37.6,50,3.832,3.827,3.822,3.826,0,0,0.926,138.11,7351.800949,0,10,Assisted_Takeoff,
411900,10/10/2019 18:50,19.28332056,-99.13858391,0,,,7351.800949,0,0.093550856,11,0,15.3,7351.800949,0,0,0.288566282,0,0,0,131.9,-0.1,0,0,0,1024,1024,1024,1024,133.9,-37.6,50,3.83,3.825,3.821,3.824,0,0,1.056,138.11,7351.800949,0,10,Assisted_Takeoff,
412000,10/10/2019 18:50,19.28332059,-99.13858388,0,,,7351.800949,0,0.10197835,11,0,15.3,7351.800949,0,0,0.288566282,0,0,0,131.9,-0.1,0.1,0,0,1024,1024,1024,1024,133.4,-37.6,50,3.83,3.825,3.821,3.824,0,0,1.056,138.11,7351.800949,0,10,Assisted_Takeoff,
412100,10/10/2019 18:50,19.28332059,-99.13858397,0,,,7351.800949,0,0.069172574,11,0,15.3,7351.800949,0,0,0.288566282,0,0,0,131.9,-0.1,0.1,0,0,1024,1024,1024,1024,133.1,-37.6,50,3.83,3.825,3.821,3.824,0,0,1.056,138.11,7351.800949,0,10,Assisted_Takeoff,
412200,10/10/2019 18:50,19.28332059,-99.13858397,0,,,7351.800949,0,0.069583992,11,0,15.3,7351.800949,0,0,0.288566282,0,0,0,131.9,-0.1,0.1,0,0,1024,1024,1024,1024,133,-37.6,50,3.83,3.825,3.821,3.824,0,0,1.056,138.11,7351.800949,0,10,Assisted_Takeoff,
412300,10/10/2019 18:50,19.28332057,-99.13858403,0,,,7351.800949,0,0.054724411,11,0,15.3,7351.800949,0,0,0.288566282,0,0,0,131.9,-0.1,0.1,0,0,1024,1024,1024,1024,132.8,-37.6,50,3.83,3.825,3.821,3.824,0,0,1.056,138.11,7351.800949,0,10,Assisted_Takeoff,
412400,10/10/2019 18:50,19.28332056,-99.13858403,0,,,7351.800949,0,0.055155514,11,0,15.3,7351.800949,0,0,0.288566282,0,0,0,131.9,-0.1,0.1,0,0,1024,1024,1024,1024,132.7,-37.6,50,3.83,3.825,3.821,3.824,0,0,1.056,138.11,7351.800949,0,10,Assisted_Takeoff,
412500,10/10/2019 18:50,19.28332046,-99.13858403,0,,,7351.800949,0,0.081413388,11,0,15.3,7351.800949,0,0,0.288566282,0,0,0,131.9,-0.1,0.1,0,0,1024,1024,1024,1024,132.7,-37.6,50,3.83,3.825,3.821,3.824,0,0,1.056,138.11,7351.800949,0,10,Assisted_Takeoff,
412600,10/10/2019 18:50,19.28332047,-99.13858402,0,,,7351.800949,0,0.082501315,11,0,15.3,7351.800949,0,0,0.288566282,0,0,0,131.9,-0.1,0.1,0,0,1024,1024,1024,1024,132.6,-37.6,50,3.83,3.825,3.821,3.824,0,0,1.056,138.11,7351.800949,0,10,Assisted_Takeoff,
412700,10/10/2019 18:50,19.28332047,-99.13858402,0,,,7351.800949,0,0.082902562,11,0,15.3,7351.800949,0,0,0.288566282,0,0,0,131.8,-0.1,0.1,0,0,1024,1024,1024,1024,132.6,-37.6,50,3.83,3.825,3.821,3.824,0,0,1.056,138.11,7351.800949,0,10,Assisted_Takeoff,
412800,10/10/2019 18:50,19.28332047,-99.13858402,0,,,7351.800949,0,0.083452102,11,0,15.3,7351.800949,0,0,0.288566282,0,0,0,131.8,-0.1,0.1,0,0,1024,1024,1024,1024,132.5,-37.6,50,3.83,3.825,3.821,3.824,0,0,1.056,138.11,7351.800949,0,10,Assisted_Takeoff,
412900,10/10/2019 18:50,19.28332037,-99.13858412,0,,,7351.800949,0,0.103374019,11,0,15.245,7351.800949,0,0,0.288566282,0,0,0,131.8,-0.1,0.1,0,0,1024,1024,1067,1024,132.5,-37.6,50,3.783,3.801,3.805,3.796,0,0,2.215,138.11,7351.800949,0,10,Assisted_Takeoff,
413100,10/10/2019 18:50,19.28332037,-99.13858401,0,,,7351.800949,0,0.115472445,11,0,15.245,7351.800949,0,0,0.288566282,0,0,0,131.8,-0.1,0.1,0,0,1024,1024,1684,1024,132.4,-37.6,50,3.783,3.801,3.805,3.796,0,0,2.215,138.11,7351.800949,0,10,Assisted_Takeoff,
413200,10/10/2019 18:50,19.28332037,-99.13858401,0,,,7351.800949,0,0.113947182,11,0,15.245,7351.800949,0,0,0.288566282,0,0,0,131.8,-0.1,0,0,0,1024,1024,1684,1024,132.4,-37.6,50,3.783,3.801,3.805,3.796,0,0,2.215,138.11,7351.800949,0,10,Assisted_Takeoff,
413300,10/10/2019 18:50,19.28332037,-99.13858401,0,,,7351.800949,0,0.114403875,11,0,15.245,7351.800949,0,0,0.288566282,0,0,0,131.8,-0.2,0,0,0,1024,1024,1684,1024,132.4,-37.6,50,3.783,3.801,3.805,3.796,0,0,2.215,138.11,7351.800949,0,10,Assisted_Takeoff,
413400,10/10/2019 18:50,19.28332037,-99.13858401,0,,,7351.800949,0,0.114801513,11,0,15.245,7351.800949,0,0,0.288566282,0,0,0,131.8,-0.2,0,0,0,1024,1024,1684,1024,132.3,-37.6,50,3.783,3.801,3.805,3.796,0,0,2.215,138.11,7351.800949,0,10,Assisted_Takeoff,
413500,10/10/2019 18:50,19.28332038,-99.13858401,0,,,7351.800949,0,0.109966539,11,0,15.245,7351.800949,0,0,0.288566282,0,0,0,131.8,0,0.1,0,0,1024,1024,1684,1024,132.3,-37.6,50,3.783,3.801,3.805,3.796,0,0,2.215,138.11,7351.800949,0,10,Assisted_Takeoff,
413600,10/10/2019 18:50,19.28332038,-99.13858401,0,,,7351.800949,0,0.111490817,11,0,15.245,7351.800949,0,0,0.288566282,0,0,-0.447388,130.7,1.7,0.1,0,0,1024,1024,1684,1024,132.3,-37.6,50,3.783,3.801,3.805,3.796,0,0,2.215,138.11,7351.800949,0,10,Assisted_Takeoff,
413700,10/10/2019 18:50,19.28332039,-99.13858403,0,,,7351.800949,0,0.103685371,11,0,15.245,7351.800949,0,0,0.288566282,0,0,-1.11847,129.1,2.8,0.1,0,0,1024,1024,1684,1024,132.3,-37.6,50,3.783,3.801,3.805,3.796,0,0,2.215,138.11,7351.800949,0,6,P-GPS,
413800,10/10/2019 18:50,19.28332043,-99.13858408,0,,,7351.800949,0,0.08467684,11,0,15.245,7351.800949,0,0,0.288566282,0,0,-1.565858,127.4,2.2,0.7,0,0,1024,1024,1684,1024,132,-37.6,50,3.783,3.801,3.805,3.796,0,0,2.215,138.11,7351.800949,0,6,P-GPS,
413900,10/10/2019 18:50,19.28332048,-99.13858418,0.328084,,,7352.129033,0.223694,0.062384516,11,0,15.245,7352.129033,0.328084,0.223694,0.288566282,0,-0.223694,-2.23694,126.1,1.7,1.5,0,0,1024,1024,1684,1024,131.5,-37.6,50,3.783,3.801,3.805,3.796,0,0,2.215,138.11,7352.129033,0.328084,6,P-GPS,
414000,10/10/2019 18:50,19.28332049,-99.13858431,0.656168,,,7352.457117,0.223694,0.076449478,11,0,15.242,7352.457117,0.656168,0.223694,0.288566282,0,-0.223694,-2.908022,125.2,2,1.3,0,0,1024,1024,1684,1024,130.1,-37.6,50,3.814,3.811,3.808,3.809,0,0,2.407,138.11,7352.457117,0.656168,6,P-GPS,
414100,10/10/2019 18:50,19.28332044,-99.13858442,1.312336,,,7353.113285,0.447388,0.117039374,12,0,15.242,7353.113285,1.312336,0.447388,0.288566282,0,-0.447388,-3.35541,124.5,2.7,0,0,0,1024,1024,1684,1024,130.1,-37.6,50,3.814,3.811,3.808,3.809,0,0,2.407,138.11,7353.113285,1.312336,6,P-GPS,
414200,10/10/2019 18:50,19.28332044,-99.13858462,1.64042,,,7353.441369,0.447388,0.174227368,12,0,15.242,7353.441369,1.64042,0.447388,0.288566282,0,-0.447388,-4.250186,124.1,2.3,-0.6,0,0,1024,1024,1684,1024,129.5,-37.6,50,3.814,3.811,3.808,3.809,0,0,2.407,138.11,7353.441369,1.64042,6,P-GPS,
414300,10/10/2019 18:50,19.28332059,-99.13858483,2.624672,,,7354.425621,0.447388,0.230439968,12,0,15.242,7354.425621,2.624672,0.447388,0.288566282,0,-0.447388,-5.144962,123.8,1.6,-0.8,0,0,1024,1024,1684,1024,129,-37.6,50,3.814,3.811,3.808,3.809,0,0,2.407,138.11,7354.425621,2.624672,6,P-GPS,
414400,10/10/2019 18:50,19.28332068,-99.13858509,3.28084,,,7355.081789,0.4921268,0.317705063,12,0,15.242,7355.081789,3.28084,0.4921268,0.317705063,0.223694,-0.447388,-6.039738,124.1,0.7,0,0,0,1024,1024,1684,1024,128.6,-37.6,50,3.814,3.811,3.808,3.809,0,0,2.407,138.11,7355.081789,3.28084,6,P-GPS,
414500,10/10/2019 18:50,19.28332072,-99.13858545,4.265092,,,7356.066041,0.447388,0.441627311,11,0,15.242,7356.066041,4.265092,0.4921268,0.441627311,0,-0.447388,-6.934514,124.5,-0.3,-0.3,0,0,1024,1024,1684,1024,128.2,-37.6,50,3.814,3.811,3.808,3.809,0,0,2.407,138.11,7356.066041,4.265092,6,P-GPS,
414600,10/10/2019 18:50,19.28332079,-99.1385857,5.577428,,,7357.378377,0.447388,0.531971802,11,0,15.242,7357.378377,5.577428,0.4921268,0.531971802,0,-0.447388,-7.82929,124.9,-0.4,-0.9,0,0,1024,1024,1684,1024,128,-37.6,50,3.814,3.811,3.808,3.809,0,0,2.407,138.11,7357.378377,5.577428,6,P-GPS,
414700,10/10/2019 18:50,19.28332125,-99.13858569,6.56168,,,7358.362629,0.3131716,0.568520359,12,0,15.242,7358.362629,6.56168,0.4921268,0.568520359,0.223694,-0.223694,-8.724066,125.4,-0.2,-1.7,0,0,1024,1024,1684,1024,127.8,-37.6,50,3.814,3.811,3.808,3.809,0,0,2.407,138.11,7358.362629,6.56168,6,P-GPS,
414800,10/10/2019 18:50,19.28332128,-99.13858575,8.2021,,,7360.003049,0.3131716,0.591637158,12,0,15.242,7360.003049,8.2021,0.4921268,0.591637158,0.223694,-0.223694,-9.395148,126.3,-0.2,-2.1,0,0,1024,1024,1684,1024,127.7,-37.6,50,3.814,3.811,3.808,3.809,0,0,2.407,138.11,7360.003049,8.2021,6,P-GPS,
414900,10/10/2019 18:50,19.28332151,-99.13858617,9.514436,,,7361.315385,0.3131716,0.758503961,12,0,15.242,7361.315385,9.514436,0.4921268,0.758503961,0.223694,-0.223694,-9.842536,127.2,-0.1,-1.9,0,0,1024,1024,1684,1024,127.7,-37.6,50,3.814,3.811,3.808,3.809,0,0,2.407,138.11,7361.315385,9.514436,6,P-GPS,
415000,10/10/2019 18:50,19.28332171,-99.1385863,11.154856,,,7362.955805,0.4921268,0.830334672,12,0,15.277,7362.955805,11.154856,0.4921268,0.830334672,0.447388,-0.223694,-10.289924,127.8,-0.9,-1.3,0,0,1024,1024,1684,1024,127.7,-37.6,50,3.825,3.821,3.816,3.819,0,0,1.361,138.11,7362.955805,11.154856,6,P-GPS,
415100,10/10/2019 18:50,19.28332153,-99.13858695,12.467192,,,7364.268141,0.4921268,1.010977723,11,0,15.277,7364.268141,12.467192,0.4921268,1.010977723,0.223694,-0.447388,-10.513618,128.1,-1.7,0,0,0,1024,1024,1684,1024,127.7,-37.6,50,3.825,3.821,3.816,3.819,0,0,1.361,138.11,7364.268141,12.467192,6,P-GPS,
415200,10/10/2019 18:50,19.28332166,-99.13858718,14.107612,,,7365.908561,0.4921268,1.100856334,11,0,15.277,7365.908561,14.107612,0.4921268,1.100856334,0.223694,-0.447388,-10.513618,128.4,-1.9,1.1,0,0,1024,1024,1684,1024,127.7,-37.6,50,3.825,3.821,3.816,3.819,0,0,1.361,138.11,7365.908561,14.107612,6,P-GPS,
415300,10/10/2019 18:50,19.28332207,-99.13858754,15.748032,,,7367.548981,0.4921268,1.273471169,11,0,15.277,7367.548981,15.748032,0.4921268,1.273471169,0.223694,-0.447388,-11.408394,128.6,-2.8,0.2,0,0,1024,1024,1684,1024,127.7,-37.6,50,3.825,3.821,3.816,3.819,0,0,1.361,138.11,7367.548981,15.748032,6,P-GPS,
415400,10/10/2019 18:50,19.28332173,-99.13858809,17.388452,,,7369.189401,0.447388,1.408782853,11,0,15.277,7369.189401,17.388452,0.4921268,1.408782853,0,-0.447388,-11.408394,128.8,-4,-0.6,0,0,1024,1024,1684,1024,127.7,-37.6,50,3.825,3.821,3.816,3.819,0,0,1.361,138.11,7369.189401,17.388452,6,P-GPS,
415500,10/10/2019 18:50,19.2833221,-99.13858839,19.356956,,,7371.157905,0.447388,1.547116191,12,0,15.277,7371.157905,19.356956,0.4921268,1.547116191,0,-0.447388,-11.1847,129,-5.4,-2,0,0,1024,1024,1684,1024,127.7,-37.6,50,3.825,3.821,3.816,3.819,0,0,1.361,138.11,7371.157905,19.356956,6,P-GPS,
415600,10/10/2019 18:50,19.28332218,-99.13858859,20.997376,,,7372.798325,0.223694,1.620974461,12,0,15.277,7372.798325,20.997376,0.4921268,1.620974461,0,-0.223694,-10.961006,129.1,-5.3,-1.7,0,0,1024,1024,1684,1024,127.7,-37.6,50,3.825,3.821,3.816,3.819,0,0,1.361,138.11,7372.798325,20.997376,6,P-GPS,
415700,10/10/2019 18:50,19.2833225,-99.13858908,22.96588,,,7374.766829,0.223694,1.821423943,12,0,15.277,7374.766829,22.96588,0.4921268,1.821423943,0,-0.223694,-10.961006,129.3,-5.1,-1.6,0,0,1024,1024,1684,1024,127.8,-37.6,50,3.825,3.821,3.816,3.819,0,0,1.361,138.11,7374.766829,22.96588,6,P-GPS,
415800,10/10/2019 18:50,19.28332254,-99.13858921,24.6063,,,7376.407249,0.223694,1.869524338,12,0,15.277,7376.407249,24.6063,0.4921268,1.869524338,0,-0.223694,-10.961006,129.5,-4.9,-0.7,0,0,1024,1024,1684,1024,127.8,-37.6,50,3.825,3.821,3.816,3.819,0,0,1.361,138.11,7376.407249,24.6063,6,P-GPS,
415900,10/10/2019 18:50,19.28332324,-99.13858938,26.24672,,,7378.047669,0.223694,2.028881299,12,0,15.277,7378.047669,26.24672,0.4921268,2.028881299,0,-0.223694,-10.737312,129.6,-4.7,-0.2,0,0,1024,1024,1684,1024,127.9,-37.6,50,3.825,3.821,3.816,3.819,0,0,1.361,138.11,7378.047669,26.24672,6,P-GPS,
416000,10/10/2019 18:50,19.28332341,-99.13858957,27.88714,,,7379.688089,0,2.118038126,12,0,14.711,7379.688089,27.88714,0.4921268,2.118038126,0,0,-10.961006,129.5,-5.1,0.2,0,0,1024,1024,1684,1024,127.9,-37.6,50,3.676,3.699,3.676,3.659,0,0,7.971,138.11,7379.688089,27.88714,6,P-GPS,
416100,10/10/2019 18:50,19.28332372,-99.13858976,29.855644,,,7381.656593,0,2.229320937,12,0,14.711,7381.656593,29.855644,0.4921268,2.229320937,0,0,-11.1847,129.2,-5.6,-0.4,0,0,1024,1024,1684,1024,128,-37.6,50,3.676,3.699,3.676,3.659,0,0,7.971,138.11,7381.656593,29.855644,6,P-GPS,
416200,10/10/2019 18:50,19.28332373,-99.13858977,31.496064,,,7383.297013,0,2.23390099,12,0,14.711,7383.297013,31.496064,0.4921268,2.23390099,0,0,-10.737312,129.4,-6.6,-1.7,0,0,1024,1024,1684,1024,128,-37.6,50,3.676,3.699,3.676,3.659,0,0,7.971,138.11,7383.297013,31.496064,6,P-GPS,
416300,10/10/2019 18:50,19.28332428,-99.13858986,33.136484,,,7384.937433,0.223694,2.366427241,12,0,14.711,7384.937433,33.136484,0.4921268,2.366427241,0,0.223694,-10.513618,129.5,-6.5,-1.7,0,0,1024,1024,1684,1024,128.1,-37.6,50,3.676,3.699,3.676,3.659,0,0,7.971,138.11,7384.937433,33.136484,6,P-GPS,
416400,10/10/2019 18:50,19.28332432,-99.13858968,34.776904,,,7386.577853,0.447388,2.324261885,12,0,14.711,7386.577853,34.776904,0.4921268,2.366427241,0,0.447388,-9.842536,129.5,-6.6,0.2,0,0,1024,1024,1684,1024,128.1,-37.6,50,3.676,3.699,3.676,3.659,0,0,7.971,138.11,7386.577853,34.776904,6,P-GPS,
416500,10/10/2019 18:50,19.28332463,-99.13858944,36.08924,,,7387.890189,0.447388,2.324383276,12,0,14.711,7387.890189,36.08924,0.4921268,2.366427241,0,0.447388,-9.395148,129.6,-6.4,1.6,0,0,1024,1024,1684,1024,128.1,-37.6,50,3.676,3.699,3.676,3.659,0,0,7.971,138.11,7387.890189,36.08924,6,P-GPS,
416600,10/10/2019 18:50,19.28332487,-99.13858919,37.72966,,,7389.530609,0.671082,2.316834064,12,0,14.711,7389.530609,37.72966,0.671082,2.366427241,0,0.671082,-9.171454,129.8,-5.8,2.7,0,0,1024,1024,1684,1024,128.2,-37.6,50,3.676,3.699,3.676,3.659,0,0,7.971,138.11,7389.530609,37.72966,6,P-GPS,
416700,10/10/2019 18:50,19.28332487,-99.13858876,39.041996,,,7390.842945,0.671082,2.206729073,13,0,14.711,7390.842945,39.041996,0.671082,2.366427241,0,0.671082,-9.171454,130.1,-4.7,3.7,0,0,1024,1024,1684,1024,128.3,-37.6,50,3.676,3.699,3.676,3.659,0,0,7.971,138.11,7390.842945,39.041996,6,P-GPS,
416800,10/10/2019 18:50,19.28332475,-99.13858844,40.354332,,,7392.155281,0.7158208,2.099977101,13,0,14.711,7392.155281,40.354332,0.7158208,2.366427241,-0.223694,0.671082,-8.724066,130.5,-3.3,4.1,0,0,1024,1024,1684,1024,128.4,-37.6,50,3.676,3.699,3.676,3.659,0,0,7.971,138.11,7392.155281,40.354332,6,P-GPS,
416900,10/10/2019 18:50,19.28332485,-99.13858806,41.666668,,,7393.467617,0.4921268,2.035187073,13,0,14.711,7393.467617,41.666668,0.7158208,2.366427241,-0.223694,0.447388,-8.724066,131,-1.1,3.5,0,0,1024,1024,1684,1024,128.5,-37.6,50,3.676,3.699,3.676,3.659,0,0,7.971,138.11,7393.467617,41.666668,6,P-GPS,
417000,10/10/2019 18:50,19.28332472,-99.1385878,42.979004,,,7394.779953,0.4921268,1.94155518,13,0,14.097,7394.779953,42.979004,0.7158208,2.366427241,-0.223694,0.447388,-8.500372,131.2,0.2,2.6,0,0,1024,1024,1684,1024,128.6,-37.6,50,3.511,3.522,3.526,3.539,0,0,25.219,138.11,7394.779953,42.979004,6,P-GPS,
417100,10/10/2019 18:50,19.28332452,-99.13858765,44.29134,,,7396.092289,0.447388,1.85476712,14,0,14.097,7396.092289,44.29134,0.7158208,2.366427241,0,0.447388,-8.500372,130.9,-0.2,2,0,0,1024,1024,1684,1024,128.8,-37.6,50,3.511,3.522,3.526,3.539,0,0,25.219,138.11,7396.092289,44.29134,6,P-GPS,
417200,10/10/2019 18:50,19.28332447,-99.13858745,45.603676,,,7397.404625,0.447388,1.794914756,14,0,14.097,7397.404625,45.603676,0.7158208,2.366427241,0,0.447388,-8.276678,130.6,-1.2,2.2,0,0,1024,1024,1545,1024,128.9,-37.6,50,3.511,3.522,3.526,3.539,0,0,25.219,138.11,7397.404625,45.603676,6,P-GPS,
417300,10/10/2019 18:50,19.28332436,-99.13858723,46.916012,,,7398.716961,0.4921268,1.716010554,14,0,14.097,7398.716961,46.916012,0.7158208,2.366427241,-0.223694,0.447388,-8.276678,130.1,-2.2,2,0,0,1024,1024,1181,1024,129,-37.6,50,3.511,3.522,3.526,3.539,0,0,25.219,138.11,7398.716961,46.916012,6,P-GPS,
417400,10/10/2019 18:50,19.28332423,-99.13858702,47.900264,,,7399.701213,0.4921268,1.635794016,14,0,14.097,7399.701213,47.900264,0.7158208,2.366427241,-0.223694,0.447388,-8.276678,129.7,-2,2.5,0,0,1024,1024,1024,1024,129,-37.6,50,3.511,3.522,3.526,3.539,0,0,25.219,138.11,7399.701213,47.900264,6,P-GPS,
417500,10/10/2019 18:50,19.2833241,-99.13858685,49.2126,,,7401.013549,0.3131716,1.564314355,14,0,14.097,7401.013549,49.2126,0.7158208,2.366427241,-0.223694,0.223694,-8.052984,129.7,-1,2.7,0,0,1024,1024,1024,1024,129,-37.6,50,3.511,3.522,3.526,3.539,0,0,25.219,138.11,7401.013549,49.2126,6,P-GPS,
417600,10/10/2019 18:50,19.2833239,-99.13858661,50.196852,,,7401.997801,0.3131716,1.454727737,14,0,14.097,7401.997801,50.196852,0.7158208,2.366427241,-0.223694,0.223694,-6.934514,130.1,-1,2.6,0,0,1024,1024,1024,1024,129.1,-37.6,50,3.511,3.522,3.526,3.539,0,0,25.219,138.11,7401.997801,50.196852,6,P-GPS,
417800,10/10/2019 18:50,19.28332342,-99.1385866,52.165356,,,7403.966305,0.447388,1.315816971,13,0,14.097,7403.966305,52.165356,0.7158208,2.366427241,-0.447388,0,-6.039738,131.1,-0.8,1.9,0,0,1024,1024,1024,1024,129.2,-37.6,50,3.511,3.522,3.526,3.539,0,0,25.219,138.11,7403.966305,52.165356,6,P-GPS,
417900,10/10/2019 18:50,19.283323,-99.13858671,53.149608,,,7404.950557,0.447388,1.228412113,13,0,14.097,7404.950557,53.149608,0.7158208,2.366427241,-0.447388,0,-5.144962,131.5,-0.8,1,0,0,1024,1024,1024,1024,129.2,-37.6,50,3.511,3.522,3.526,3.539,0,0,25.219,138.11,7404.950557,53.149608,6,P-GPS,
418000,10/10/2019 18:50,19.28332283,-99.13858679,53.477692,,,7405.278641,0.223694,1.205032847,13,0,14.097,7405.278641,53.477692,0.7158208,2.366427241,-0.223694,0,-4.47388,131.5,-1,-1,0,0,1024,1024,1024,1024,129.3,-37.6,50,3.511,3.522,3.526,3.539,0,0,25.219,138.11,7405.278641,53.477692,6,P-GPS,
418100,10/10/2019 18:50,19.28332291,-99.13858689,54.13386,,,7405.934809,0,1.249202796,13,0,14.249,7405.934809,54.13386,0.7158208,2.366427241,0,0,-3.802798,131.3,-1.4,-2.2,0,0,1024,1024,1024,1024,129.4,-37.6,50,3.574,3.56,3.55,3.565,0,0,21.319,138.11,7405.934809,54.13386,6,P-GPS,
418300,10/10/2019 18:50,19.28332278,-99.13858723,55.118112,,,7406.919061,0,1.311850436,13,0,14.249,7406.919061,55.118112,0.7158208,2.366427241,0,0,-2.460634,131.2,-3.4,-1.7,0,0,1024,1024,1024,1024,129.6,-37.6,50,3.574,3.56,3.55,3.565,0,0,21.319,138.11,7406.919061,55.118112,6,P-GPS,
418400,10/10/2019 18:50,19.28332287,-99.13858732,55.446196,,,7407.247145,0,1.355659492,13,0,14.249,7407.247145,55.446196,0.7158208,2.366427241,0,0,-1.789552,131.1,-4,-0.2,0,0,1024,1024,1024,1024,129.6,-37.6,50,3.574,3.56,3.55,3.565,0,0,21.319,138.11,7407.247145,55.446196,6,P-GPS,
418500,10/10/2019 18:50,19.283323,-99.13858758,55.446196,,,7407.247145,0.223694,1.455695585,14,0,14.249,7407.247145,55.446196,0.7158208,2.366427241,0,-0.223694,-1.11847,131,-4.5,-0.3,0,0,1024,1024,1024,1024,129.7,-37.6,50,3.574,3.56,3.55,3.565,0,0,21.319,138.11,7407.247145,55.446196,6,P-GPS,
418600,10/10/2019 18:50,19.2833231,-99.13858765,55.446196,,,7407.247145,0.223694,1.497759234,14,0,14.249,7407.247145,55.446196,0.7158208,2.366427241,0.223694,0,-0.894776,130.6,-5.5,-2.8,0,0,1024,1024,1024,1024,129.7,-37.6,50,3.574,3.56,3.55,3.565,0,0,21.319,138.11,7407.247145,55.446196,6,P-GPS,
418600,10/10/2019 18:50,19.2833231,-99.13858765,55.446196,,,7407.247145,0.223694,1.497759234,14,0,14.249,7407.247145,55.446196,0.7158208,2.366427241,0.223694,0,-0.894776,130.6,-5.5,-2.8,0,0,1024,1024,1024,1024,129.8,-37.6,50,3.574,3.56,3.55,3.565,0,0,21.319,138.11,7407.247145,55.446196,6,P-GPS,
418800,10/10/2019 18:50,19.28332314,-99.13858771,56.102364,,,7407.903313,0.3131716,1.520741518,14,0,14.249,7407.903313,56.102364,0.7158208,2.366427241,0.223694,0.223694,-0.894776,129,-5.6,-2.2,0,0,1024,1024,1024,1024,129.8,-37.6,50,3.574,3.56,3.55,3.565,0,0,21.319,138.11,7407.903313,56.102364,6,P-GPS,
418900,10/10/2019 18:50,19.28332339,-99.13858716,56.102364,,,7407.903313,0.6263432,1.438198865,15,0,14.249,7407.903313,56.102364,0.7158208,2.366427241,0.447388,0.447388,-0.671082,128.7,-5.1,-0.7,0,0,1024,1024,1024,1024,129.7,-35.7,50,3.574,3.56,3.55,3.565,0,0,21.319,138.11,7407.903313,56.102364,6,P-GPS,
419000,10/10/2019 18:50,19.28332358,-99.13858693,56.102364,,,7407.903313,0.4921268,1.432365531,15,0,14.249,7407.903313,56.102364,0.7158208,2.366427241,0.223694,0.447388,0,128.7,-3.8,1.2,0,0,1024,1024,1024,1024,129.7,-34.3,50,3.574,3.56,3.55,3.565,0,0,21.319,138.11,7407.903313,56.102364,6,P-GPS,
419100,10/10/2019 18:50,19.28332375,-99.13858673,56.102364,,,7407.903313,0.4921268,1.436194272,14,0,14.249,7407.903313,56.102364,0.7158208,2.366427241,0.223694,0.447388,0,128.7,-2.6,2.5,0,0,1024,1024,1024,1024,129.7,-33.8,50,3.574,3.56,3.55,3.565,0,0,21.319,138.11,7407.903313,56.102364,6,P-GPS,
419200,10/10/2019 18:50,19.28332391,-99.13858652,55.77428,,,7407.575229,0.3131716,1.439166713,14,0,14.365,7407.903313,56.102364,0.7158208,2.366427241,0.223694,0.223694,0,128.7,-2.2,3.3,0,0,1024,1024,1024,1024,129.7,-33.8,50,3.599,3.59,3.587,3.593,0,0,18.434,138.11,7407.575229,55.77428,6,P-GPS,
419300,10/10/2019 18:50,19.28332378,-99.13858657,55.77428,,,7407.575229,0.223694,1.410731672,15,0,14.365,7407.903313,56.102364,0.7158208,2.366427241,0.223694,0,0,129.1,-2,3.6,0,0,1024,1024,1024,1024,129.7,-33.8,50,3.599,3.59,3.587,3.593,0,0,18.434,138.11,7407.575229,55.77428,6,P-GPS,
419400,10/10/2019 18:50,19.28332387,-99.1385866,55.77428,,,7407.575229,0,1.443969862,15,0,14.365,7407.903313,56.102364,0.7158208,2.366427241,0,0,0,129.4,-2.5,3.9,0,0,1024,1024,1024,1024,129.7,-33.8,50,3.599,3.59,3.587,3.593,0,0,18.434,138.11,7407.575229,55.77428,6,P-GPS,
419500,10/10/2019 18:50,19.28332382,-99.13858651,55.77428,,,7407.575229,0,1.409986922,15,0,14.365,7407.903313,56.102364,0.7158208,2.366427241,0,0,0,129.5,-3.1,3.4,0,0,1024,1024,1024,1024,129.7,-33.8,50,3.599,3.59,3.587,3.593,0,0,18.434,138.11,7407.575229,55.77428,6,P-GPS,
419600,10/10/2019 18:50,19.28332387,-99.13858651,55.77428,,,7407.575229,0,1.425318287,15,0,14.365,7407.903313,56.102364,0.7158208,2.366427241,0,0,0,129.4,-3.5,2.3,0,0,1024,1024,1024,1024,129.7,-33.8,50,3.599,3.59,3.587,3.593,0,0,18.434,138.11,7407.575229,55.77428,6,P-GPS,
419700,10/10/2019 18:50,19.28332381,-99.1385866,55.446196,,,7407.247145,0,1.426637185,14,0,14.365,7407.903313,56.102364,0.7158208,2.366427241,0,0,0,129.3,-3.6,1.8,0,0,1024,1024,1024,1024,129.7,-33.8,50,3.599,3.59,3.587,3.593,0,0,18.434,138.11,7407.247145,55.446196,6,P-GPS,
419800,10/10/2019 18:50,19.28332377,-99.13858663,55.446196,,,7407.247145,0,1.419389809,14,0,14.365,7407.903313,56.102364,0.7158208,2.366427241,0,0,0,129.1,-3.6,0.9,0,0,1024,1024,1024,1024,129.7,-33.8,50,3.599,3.59,3.587,3.593,0,0,18.434,138.11,7407.247145,55.446196,6,P-GPS,
419900,10/10/2019 18:50,19.28332373,-99.13858664,55.446196,,,7407.247145,0,1.412024323,14,0,14.365,7407.903313,56.102364,0.7158208,2.366427241,0,0,0,128.9,-3.1,0,0,0,1024,1024,1024,1024,129.7,-33.8,50,3.599,3.59,3.587,3.593,0,0,18.434,138.11,7407.247145,55.446196,6,P-GPS,
420000,10/10/2019 18:50,19.28332373,-99.13858654,55.118112,,,7406.919061,0,1.389858968,14,0,14.365,7407.903313,56.102364,0.7158208,2.366427241,0,0,0,129,-2.8,0.2,0,0,1024,1024,1024,1024,129.7,-33.9,50,3.599,3.59,3.587,3.593,0,0,18.434,138.11,7406.919061,55.118112,6,P-GPS,
420100,10/10/2019 18:50,19.28332384,-99.13858654,55.118112,,,7406.919061,0,1.424219206,14,0,14.365,7407.903313,56.102364,0.7158208,2.366427241,0,0,0,129.2,-2.8,0.6,0,0,1024,1024,1024,1024,129.7,-34,50,3.599,3.59,3.587,3.593,0,0,18.434,138.11,7406.919061,55.118112,6,P-GPS,
420200,10/10/2019 18:50,19.28332386,-99.13858655,55.118112,,,7406.919061,0,1.430577474,14,0,14.528,7407.903313,56.102364,0.7158208,2.366427241,0,0,0,129.4,-3.3,0.8,0,0,1024,1024,1024,1024,129.7,-34.1,50,3.644,3.644,3.648,3.66,0,0,14.612,138.11,7406.919061,55.118112,6,P-GPS,
420300,10/10/2019 18:50,19.28332397,-99.13858657,55.118112,,,7406.919061,0,1.46891737,13,0,14.528,7407.903313,56.102364,0.7158208,2.366427241,0,0,0,129.5,-3.5,0.7,0,0,1024,1024,1024,1024,129.6,-34.1,50,3.644,3.644,3.648,3.66,0,0,14.612,138.11,7406.919061,55.118112,6,P-GPS,
420400,10/10/2019 18:50,19.28332403,-99.13858657,54.790028,,,7406.590977,0,1.484809759,13,0,14.528,7407.903313,56.102364,0.7158208,2.366427241,0,0,0,129.6,-3.7,0.2,0,0,1024,1024,1024,1024,129.7,-34.1,50,3.644,3.644,3.648,3.66,0,0,14.612,138.11,7406.590977,54.790028,6,P-GPS,
420500,10/10/2019 18:50,19.28332404,-99.13858669,54.790028,,,7406.590977,0,1.511732332,13,0,14.528,7407.903313,56.102364,0.7158208,2.366427241,0,0,0,129.9,-4,0.3,0,0,1024,1024,1024,1024,129.7,-34.1,50,3.644,3.644,3.648,3.66,0,0,14.612,138.11,7406.590977,54.790028,6,P-GPS,
420600,10/10/2019 18:50,19.28332404,-99.13858669,54.790028,,,7406.590977,0,1.513586006,13,0,14.528,7407.903313,56.102364,0.7158208,2.366427241,0,0,0,130.2,-4.3,0.2,0,0,1024,1024,1024,1024,129.7,-34.9,50,3.644,3.644,3.648,3.66,0,0,14.612,138.11,7406.590977,54.790028,6,P-GPS,
420700,10/10/2019 18:50,19.28332408,-99.13858684,54.790028,,,7406.590977,0,1.555620129,14,0,14.528,7407.903313,56.102364,0.7158208,2.366427241,0,0,0,130.4,-4.5,0.3,0,0,1024,1024,1024,1024,129.7,-38.6,50,3.644,3.644,3.648,3.66,0,0,14.612,138.11,7406.590977,54.790028,6,P-GPS,
420800,10/10/2019 18:50,19.28332406,-99.13858682,54.790028,,,7406.590977,0,1.544898343,14,0,14.528,7407.903313,56.102364,0.7158208,2.366427241,0,0,0,130.6,-5,0.5,0,0,1024,1024,1024,1024,129.7,-42.3,50,3.644,3.644,3.648,3.66,0,0,14.612,138.11,7406.590977,54.790028,6,P-GPS,
420900,10/10/2019 18:50,19.28332403,-99.1385869,54.461944,,,7406.262893,0,1.551118816,14,0,14.528,7407.903313,56.102364,0.7158208,2.366427241,0,0,0,130.7,-4.9,0.7,0,0,1024,1024,1024,1024,129.7,-42.7,50,3.644,3.644,3.648,3.66,0,0,14.612,138.11,7406.262893,54.461944,6,P-GPS,
421000,10/10/2019 18:50,19.28332397,-99.13858692,54.461944,,,7406.262893,0,1.539173278,14,0,14.528,7407.903313,56.102364,0.7158208,2.366427241,0,0,0,130.7,-4.6,0.9,0,0,1024,1024,1024,1056,129.7,-42.7,50,3.644,3.644,3.648,3.66,0,0,14.612,138.11,7406.262893,54.461944,6,P-GPS,
421100,10/10/2019 18:50,19.28332401,-99.138587,54.461944,,,7406.262893,0,1.568628659,14,0,14.528,7407.903313,56.102364,0.7158208,2.366427241,0,0,0,130.8,-4.5,0.8,0,0,1024,1024,1024,1078,129.8,-42.7,50,3.644,3.644,3.648,3.66,0,0,14.612,138.11,7406.262893,54.461944,6,P-GPS,
421200,10/10/2019 18:50,19.28332396,-99.13858699,54.461944,,,7406.262893,0,1.549229052,14,0,14.605,7407.903313,56.102364,0.7158208,2.366427241,0,0,0,130.8,-4.4,0.4,0,0,1024,1024,1024,1335,129.8,-42.7,50,3.647,3.641,3.632,3.641,0,0,11.591,138.11,7406.262893,54.461944,6,P-GPS,
421300,10/10/2019 18:50,19.28332383,-99.13858709,54.13386,,,7405.934809,0,1.537165404,15,0,14.605,7407.903313,56.102364,0.7158208,2.366427241,0,0,0,131.8,-4.5,0.2,0,0,1024,1024,1024,1374,130.6,-42.7,50,3.647,3.641,3.632,3.641,0,0,11.591,138.11,7405.934809,54.13386,6,P-GPS,
421400,10/10/2019 18:50,19.28332379,-99.13858707,54.13386,,,7405.934809,0,1.520482332,15,0,14.605,7407.903313,56.102364,0.7158208,2.366427241,0,0,-0.223694,135.4,-4.3,0,0,0,1024,1024,1024,1340,132.9,-42.7,50,3.647,3.641,3.632,3.641,0,0,11.591,138.11,7405.934809,54.13386,6,P-GPS,
421500,10/10/2019 18:50,19.28332374,-99.13858713,54.13386,,,7405.934809,0.223694,1.522982332,14,0,14.605,7407.903313,56.102364,0.7158208,2.366427241,-0.223694,0,-0.223694,140.1,-4.5,-0.3,0,0,1024,1024,1024,1322,135.1,-42.7,50,3.647,3.641,3.632,3.641,0,0,11.591,138.11,7405.934809,54.13386,6,P-GPS,
421600,10/10/2019 18:50,19.28332372,-99.13858714,54.13386,,,7405.934809,0.223694,1.517631282,14,0,14.605,7407.903313,56.102364,0.7158208,2.366427241,-0.223694,0,-0.223694,144.8,-4.2,-0.5,0,0,1024,1024,1024,1318,141.4,-42.7,50,3.647,3.641,3.632,3.641,0,0,11.591,138.11,7405.934809,54.13386,6,P-GPS,
421700,10/10/2019 18:50,19.28332347,-99.13858721,54.13386,,,7405.934809,0.223694,1.46911422,14,0,14.605,7407.903313,56.102364,0.7158208,2.366427241,-0.223694,0,-0.223694,149.5,-4.1,-0.8,0,0,1024,1024,1024,1319,141.4,-42.7,50,3.647,3.641,3.632,3.641,0,0,11.591,138.11,7405.934809,54.13386,6,P-GPS,
421800,10/10/2019 18:50,19.28332336,-99.13858717,54.13386,,,7405.934809,0.223694,1.431709363,14,0,14.605,7407.903313,56.102364,0.7158208,2.366427241,-0.223694,0,-0.223694,154.3,-3.7,-1,0,0,1024,1024,1024,1321,145.7,-42.7,50,3.647,3.641,3.632,3.641,0,0,11.591,138.11,7405.934809,54.13386,6,P-GPS,
421900,10/10/2019 18:50,19.28332312,-99.13858725,54.13386,,,7405.934809,0.223694,1.393743483,15,0,14.605,7407.903313,56.102364,0.7158208,2.366427241,-0.223694,0,-0.223694,159.1,-3.3,-1.3,0,0,1024,1024,1024,1325,150.1,-42.7,50,3.647,3.641,3.632,3.641,0,0,11.591,138.11,7405.934809,54.13386,6,P-GPS,
422000,10/10/2019 18:50,19.28332297,-99.13858721,54.13386,,,7405.934809,0.223694,1.349370122,15,0,14.605,7407.903313,56.102364,0.7158208,2.366427241,-0.223694,0,-0.223694,163.8,-2.8,-1.5,0,0,1024,1024,1024,1328,154.9,-42.7,50,3.647,3.641,3.632,3.641,0,0,11.591,138.11,7405.934809,54.13386,6,P-GPS,
422200,10/10/2019 18:50,19.28332274,-99.13858721,54.13386,,,7405.934809,0.223694,1.295836656,15,0,14.605,7407.903313,56.102364,0.7158208,2.366427241,-0.223694,0,-0.223694,173.3,-2.4,-1.8,0,0,1024,1024,1024,1325,164.4,-42.7,50,3.647,3.641,3.632,3.641,0,0,11.591,138.11,7405.934809,54.13386,6,P-GPS,
422300,10/10/2019 18:50,19.28332245,-99.13858744,54.13386,,,7405.934809,0.223694,1.303333375,14,0,14.478,7407.903313,56.102364,0.7158208,2.366427241,-0.223694,0,0,177.9,-2.3,-1.9,0,0,1024,1024,1024,1329,169,-42.7,50,3.618,3.608,3.606,3.619,0,0,15.177,138.11,7405.934809,54.13386,6,P-GPS,
422400,10/10/2019 18:50,19.28332228,-99.13858743,54.13386,,,7405.934809,0.223694,1.270410146,14,0,14.478,7407.903313,56.102364,0.7158208,2.366427241,-0.223694,0,-0.223694,182.7,-2.1,-2.7,0,0,1024,1024,1024,1328,173.7,-42.7,50,3.618,3.608,3.606,3.619,0,0,15.177,138.11,7405.934809,54.13386,6,P-GPS,
422500,10/10/2019 18:50,19.28332221,-99.13858733,54.13386,,,7405.934809,0.223694,1.231063032,15,0,14.478,7407.903313,56.102364,0.7158208,2.366427241,-0.223694,0,0,187.4,-1.6,-3,0,0,1024,1024,1024,1325,178.5,-42.7,50,3.618,3.608,3.606,3.619,0,0,15.177,138.11,7405.934809,54.13386,6,P-GPS,
422600,10/10/2019 18:50,19.28332205,-99.13858729,54.13386,,,7405.934809,0.223694,1.190308437,15,0,14.478,7407.903313,56.102364,0.7158208,2.366427241,-0.223694,0,0,192.3,-1.5,-2.8,0,0,1024,1024,1024,1178,183.3,-42.7,50,3.618,3.608,3.606,3.619,0,0,15.177,138.11,7405.934809,54.13386,6,P-GPS,
422700,10/10/2019 18:50,19.28332177,-99.13858732,54.13386,,,7405.934809,0.223694,1.160121428,14,0,14.478,7407.903313,56.102364,0.7158208,2.366427241,-0.223694,0,0,196.7,-1.2,-2.8,0,0,1024,1024,1024,1024,187.9,-42.7,50,3.618,3.608,3.606,3.619,0,0,15.177,138.11,7405.934809,54.13386,6,P-GPS,
422800,10/10/2019 18:50,19.28332162,-99.13858723,54.13386,,,7405.934809,0.447388,1.113497411,14,0,14.478,7407.903313,56.102364,0.7158208,2.366427241,-0.447388,0,-0.223694,199.3,-1,-2.8,0,0,1024,1024,1024,1024,191.5,-42.7,50,3.618,3.608,3.606,3.619,0,0,15.177,138.11,7405.934809,54.13386,6,P-GPS,
422900,10/10/2019 18:50,19.28332145,-99.13858738,54.13386,,,7405.934809,0.447388,1.144120772,14,0,14.478,7407.903313,56.102364,0.7158208,2.366427241,-0.447388,0,-0.223694,200.6,-0.5,-2.6,0,0,1024,1024,1321,1024,194.5,-42.7,50,3.618,3.608,3.606,3.619,0,0,15.177,138.11,7405.934809,54.13386,6,P-GPS,
423000,10/10/2019 18:50,19.28332126,-99.13858738,53.805776,,,7405.606725,0.223694,1.130226414,14,0,14.478,7407.903313,56.102364,0.7158208,2.366427241,-0.223694,0,0,201.4,0,-2.7,0,0,1024,1024,1684,1024,196.4,-42.7,50,3.618,3.608,3.606,3.619,0,0,15.177,138.11,7405.606725,53.805776,6,P-GPS,
423100,10/10/2019 18:50,19.283321,-99.13858744,53.805776,,,7405.606725,0.223694,1.134757254,14,0,14.478,7407.903313,56.102364,0.7158208,2.366427241,-0.223694,0,-0.223694,201.9,0.4,-3,0,0,1024,1024,1684,1024,197.7,-42.7,50,3.618,3.608,3.606,3.619,0,0,15.177,138.11,7405.606725,53.805776,6,P-GPS,
423200,10/10/2019 18:50,19.28332085,-99.13858741,54.13386,,,7405.934809,0.223694,1.119022346,14,0,14.478,7407.903313,56.102364,0.7158208,2.366427241,-0.223694,0,-1.11847,201.8,1.2,-2.5,0,0,1024,1024,1684,1024,198.7,-42.7,50,3.618,3.608,3.606,3.619,0,0,15.177,138.11,7405.934809,54.13386,6,P-GPS,
423200,10/10/2019 18:50,19.28332085,-99.13858741,54.13386,,,7405.934809,0.223694,1.119022346,14,0,14.43,7407.903313,56.102364,0.7158208,2.366427241,-0.223694,0,-1.11847,201.8,1.2,-2.5,0,0,1024,1024,1684,1024,199.3,-42.7,50,3.611,3.601,3.6,3.609,0,0,15.618,138.11,7405.934809,54.13386,6,P-GPS,
423600,10/10/2019 18:50,19.28332065,-99.13858731,55.77428,,,7407.575229,0,1.082496754,14,0,14.43,7407.903313,56.102364,0.7158208,2.366427241,0,0,-5.368656,199.6,0.1,-2.2,0,0,1024,1024,1684,1024,199.7,-42.7,50,3.611,3.601,3.6,3.609,0,0,15.618,138.11,7407.575229,55.77428,6,P-GPS,
423700,10/10/2019 18:50,19.28332063,-99.13858719,56.758532,,,7408.559481,0,1.041932448,13,0,14.43,7408.559481,56.758532,0.7158208,2.366427241,0,0,-6.263432,199.4,-0.7,-2.4,0,0,1024,1024,1684,1024,199.6,-42.7,50,3.611,3.601,3.6,3.609,0,0,15.618,138.11,7408.559481,56.758532,6,P-GPS,
423800,10/10/2019 18:50,19.28332057,-99.13858725,57.742784,,,7409.543733,0,1.064114207,13,0,14.43,7409.543733,57.742784,0.7158208,2.366427241,0,0,-7.158208,199.3,-1.6,-2.7,0,0,1024,1024,1684,1024,199.6,-42.7,50,3.611,3.601,3.6,3.609,0,0,15.618,138.11,7409.543733,57.742784,6,P-GPS,
423900,10/10/2019 18:50,19.28332035,-99.13858718,58.727036,,,7410.527985,0.223694,1.042165388,14,0,14.43,7410.527985,58.727036,0.7158208,2.366427241,-0.223694,0,-7.82929,199.3,-1.6,-2.1,0,0,1024,1024,1684,1024,199.6,-42.7,50,3.611,3.601,3.6,3.609,0,0,15.618,138.11,7410.527985,58.727036,6,P-GPS,
424000,10/10/2019 18:50,19.28332018,-99.1385872,60.039372,,,7411.840321,0.223694,1.058904233,14,0,14.43,7411.840321,60.039372,0.7158208,2.366427241,-0.223694,0,-8.276678,199.5,-0.6,-1.2,0,0,1024,1024,1684,1024,199.6,-42.7,50,3.611,3.601,3.6,3.609,0,0,15.618,138.11,7411.840321,60.039372,6,P-GPS,
424100,10/10/2019 18:50,19.28331976,-99.13858746,61.351708,,,7413.152657,0.4921268,1.179714605,12,0,14.43,7413.152657,61.351708,0.7158208,2.366427241,-0.447388,-0.223694,-8.724066,199.9,0.1,-1.5,0,0,1024,1024,1684,1024,199.6,-42.7,50,3.611,3.601,3.6,3.609,0,0,15.618,138.11,7413.152657,61.351708,6,P-GPS,
424200,10/10/2019 18:50,19.28331955,-99.13858761,62.664044,,,7414.464993,0.4921268,1.250895709,12,0,14.43,7414.464993,62.664044,0.7158208,2.366427241,-0.447388,-0.223694,-8.94776,200.2,1.4,-3,0,0,1024,1024,1652,1024,199.6,-42.7,50,3.611,3.601,3.6,3.609,0,0,15.618,138.11,7414.464993,62.664044,6,P-GPS,
424300,10/10/2019 18:50,19.28331969,-99.13858757,63.97638,,,7415.777329,0.3131716,1.222427861,13,0,14.43,7415.777329,63.97638,0.7158208,2.366427241,-0.223694,-0.223694,-9.171454,200.5,1.9,-3.2,0,0,1024,1024,1430,1024,199.7,-42.7,50,3.611,3.601,3.6,3.609,0,0,15.618,138.11,7415.777329,63.97638,6,P-GPS,
424400,10/10/2019 18:50,19.28331932,-99.13858787,65.288716,,,7417.089665,0.223694,1.363861592,13,0,14.43,7417.089665,65.288716,0.7158208,2.366427241,0,-0.223694,-9.395148,200.2,2.8,-2.8,0,0,1024,1024,1044,1024,199.7,-42.7,50,3.611,3.601,3.6,3.609,0,0,15.618,138.11,7417.089665,65.288716,6,P-GPS,
424500,10/10/2019 18:50,19.28331959,-99.13858807,66.601052,,,7418.402001,0.223694,1.398569599,13,0,14.411,7418.402001,66.601052,0.7158208,2.366427241,0,-0.223694,-9.171454,199,4.6,-2.3,0,0,1024,1024,759,1024,199.7,-42.7,49,3.61,3.601,3.597,3.601,0,0,15.545,138.11,7418.402001,66.601052,6,P-GPS,
424600,10/10/2019 18:50,19.28331965,-99.13858824,67.913388,,,7419.714337,0.3131716,1.450019731,13,0,14.411,7419.714337,67.913388,0.7158208,2.366427241,0.223694,-0.223694,-8.500372,198.2,4.7,-4.9,0,0,1024,1024,480,1024,199.7,-42.7,49,3.61,3.601,3.597,3.601,0,0,15.545,138.11,7419.714337,67.913388,6,P-GPS,
424700,10/10/2019 18:50,19.28331989,-99.13858867,68.89764,,,7420.698589,0.4921268,1.574865536,13,0,14.411,7420.698589,68.89764,0.7158208,2.366427241,0.223694,-0.447388,-7.82929,198.2,2.5,-7.7,0,0,1024,1024,364,1024,199.7,-42.7,49,3.61,3.601,3.597,3.601,0,0,15.545,138.11,7420.698589,68.89764,6,P-GPS,
424800,10/10/2019 18:50,19.28332002,-99.13858887,69.881892,,,7421.682841,0.4921268,1.637545984,13,0,14.411,7421.682841,69.881892,0.7158208,2.366427241,0.223694,-0.447388,-6.934514,198.9,0,-8.6,0,0,1024,1024,364,1024,199.7,-42.7,49,3.61,3.601,3.597,3.601,0,0,15.545,138.11,7421.682841,69.881892,6,P-GPS,
424900,10/10/2019 18:50,19.28332071,-99.1385888,70.866144,,,7422.667093,0.3131716,1.597473804,13,0,14.411,7422.667093,70.866144,0.7158208,2.366427241,0.223694,-0.223694,-6.263432,199.8,-1.4,-8.7,0,0,1024,1024,364,1024,199.6,-42.7,49,3.61,3.601,3.597,3.601,0,0,15.545,138.11,7422.667093,70.866144,6,P-GPS,
425000,10/10/2019 18:50,19.28332062,-99.13858914,71.522312,,,7423.323261,0.223694,1.713307141,13,0,14.411,7423.323261,71.522312,0.7158208,2.366427241,0,-0.223694,-5.59235,200.7,-2.4,-8.6,0,0,1024,1024,364,1024,199.6,-42.7,49,3.61,3.601,3.597,3.601,0,0,15.545,138.11,7423.323261,71.522312,6,P-GPS,
425100,10/10/2019 18:50,19.28332135,-99.13858909,72.506564,,,7424.307513,0.223694,1.713960029,13,0,14.411,7424.307513,72.506564,0.7158208,2.366427241,0,-0.223694,-5.144962,201.3,-2.5,-8.8,0,0,1024,1024,364,1024,199.6,-42.7,49,3.61,3.601,3.597,3.601,0,0,15.545,138.11,7424.307513,72.506564,6,P-GPS,
425200,10/10/2019 18:50,19.28332142,-99.13858924,73.162732,,,7424.963681,0.223694,1.768704125,13,0,14.411,7424.963681,73.162732,0.7158208,2.366427241,0,-0.223694,-4.697574,201.9,-3.2,-8.9,0,0,1024,1024,364,1024,199.7,-42.7,49,3.61,3.601,3.597,3.601,0,0,15.545,138.11,7424.963681,73.162732,6,P-GPS,
425300,10/10/2019 18:50,19.28332223,-99.13858928,73.8189,,,7425.619849,0.223694,1.852162133,13,0,14.411,7425.619849,73.8189,0.7158208,2.366427241,0,-0.223694,-4.026492,202.3,-3.4,-9.1,0,0,1024,1024,364,1024,199.7,-42.7,49,3.61,3.601,3.597,3.601,0,0,15.545,138.11,7425.619849,73.8189,6,P-GPS,
425400,10/10/2019 18:50,19.28332226,-99.13858942,74.475068,,,7426.276017,0.223694,1.900889168,13,0,14.411,7426.276017,74.475068,0.7158208,2.366427241,0,-0.223694,-3.579104,202.6,-4.1,-9.4,0,0,1024,1024,364,1024,199.8,-42.7,49,3.61,3.601,3.597,3.601,0,0,15.545,138.11,7426.276017,74.475068,6,P-GPS,
425500,10/10/2019 18:50,19.28332281,-99.13858939,74.475068,,,7426.276017,0.223694,1.964215942,14,0,13.825,7426.276017,74.475068,0.7158208,2.366427241,0,-0.223694,-2.460634,202.8,-4.4,-9.5,0,0,1024,1024,364,1024,199.9,-42.7,49,3.457,3.452,3.453,3.464,0,0,27.133,138.11,7426.276017,74.475068,6,P-GPS,
425600,10/10/2019 18:50,19.28332318,-99.13858945,74.803152,,,7426.604101,0,2.041010564,14,0,13.825,7426.604101,74.803152,0.7158208,2.366427241,0,0,-2.013246,202.8,-4.7,-9.7,0,0,1024,1024,364,1024,200,-42.7,49,3.457,3.452,3.453,3.464,0,0,27.133,138.11,7426.604101,74.803152,6,P-GPS,
425700,10/10/2019 18:50,19.28332332,-99.13858945,75.131236,,,7426.932185,0,2.063848491,14,0,13.825,7426.932185,75.131236,0.7158208,2.366427241,0,0,-1.342164,202.6,-4.2,-9.7,0,0,1024,1024,364,1024,200.1,-42.9,49,3.457,3.452,3.453,3.464,0,0,27.133,138.11,7426.932185,75.131236,6,P-GPS,
425800,10/10/2019 18:50,19.28332324,-99.13858948,75.131236,,,7426.932185,0.223694,2.059580118,14,0,13.825,7426.932185,75.131236,0.7158208,2.366427241,-0.223694,0,-0.447388,202.3,-4.2,-9.2,0,0,1024,1024,364,1024,200.2,-44.5,49,3.457,3.452,3.453,3.464,0,0,27.133,138.11,7426.932185,75.131236,6,P-GPS,
425900,10/10/2019 18:50,19.28332343,-99.1385893,75.131236,,,7426.932185,0.223694,2.038992847,14,0,13.825,7426.932185,75.131236,0.7158208,2.366427241,-0.223694,0,0,202.1,-3.5,-8.7,0,0,1024,1024,715,1024,200.2,-46.7,49,3.457,3.452,3.453,3.464,0,0,27.133,138.11,7426.932185,75.131236,6,P-GPS,
426000,10/10/2019 18:50,19.28332324,-99.13858926,74.803152,,,7426.604101,0.223694,1.994212662,14,0,13.825,7426.932185,75.131236,0.7158208,2.366427241,-0.223694,0,0.671082,202.1,-3.4,-8.3,0,0,1024,1024,940,1024,200.3,-48.9,49,3.457,3.452,3.453,3.464,0,0,27.133,138.11,7426.604101,74.803152,6,P-GPS,
426100,10/10/2019 18:50,19.28332307,-99.13858938,74.803152,,,7426.604101,0.223694,2.002198227,14,0,13.825,7426.932185,75.131236,0.7158208,2.366427241,-0.223694,0,1.342164,201.9,-3.4,-7.2,0,0,1024,1024,929,1024,200.3,-50.9,49,3.457,3.452,3.453,3.464,0,0,27.133,138.11,7426.604101,74.803152,6,P-GPS,
426200,10/10/2019 18:50,19.28332315,-99.13858939,74.146984,,,7425.947933,0.447388,2.018933792,14,0,13.825,7426.932185,75.131236,0.7158208,2.366427241,-0.447388,0,2.013246,201.7,-2.8,-6.8,0,0,1024,1024,1024,1024,200.3,-51.5,49,3.457,3.452,3.453,3.464,0,0,27.133,138.11,7425.947933,74.146984,6,P-GPS,
426300,10/10/2019 18:50,19.28332288,-99.1385895,73.8189,,,7425.619849,0.447388,2.007739566,14,0,13.825,7426.932185,75.131236,0.7158208,2.366427241,-0.447388,0,1.789552,201.4,-1.9,-6.6,0,0,1024,1024,1024,1024,200.3,-51.5,49,3.457,3.452,3.453,3.464,0,0,27.133,138.11,7425.619849,73.8189,6,P-GPS,
426400,10/10/2019 18:50,19.28332263,-99.13858952,73.8189,,,7425.619849,0.447388,1.981988252,14,0,13.825,7426.932185,75.131236,0.7158208,2.366427241,-0.447388,0,1.11847,201.2,-0.2,-5.6,0,0,1024,1024,1024,1024,200.4,-51.5,49,3.457,3.452,3.453,3.464,0,0,27.133,138.11,7425.619849,73.8189,6,P-GPS,
426500,10/10/2019 18:50,19.28332226,-99.1385895,73.490816,,,7425.291765,0.447388,1.928067647,14,0,14.395,7426.932185,75.131236,0.7158208,2.366427241,-0.447388,0,0.894776,201,0.7,-5.3,0,0,1024,1024,1024,1024,200.4,-51.9,49,3.595,3.595,3.596,3.609,0,0,18.32,138.11,7425.291765,73.490816,6,P-GPS,
426700,10/10/2019 18:50,19.28332201,-99.1385896,73.162732,,,7424.963681,0.447388,1.935794025,14,0,14.395,7426.932185,75.131236,0.7158208,2.366427241,-0.447388,0,0.447388,200.5,1.3,-5.9,0,0,1024,1024,1024,1024,200.4,-62.6,49,3.595,3.595,3.596,3.609,0,0,18.32,138.11,7424.963681,73.162732,6,P-GPS,
426800,10/10/2019 18:50,19.28332182,-99.13858959,73.162732,,,7424.963681,0.223694,1.915003342,14,0,14.395,7426.932185,75.131236,0.7158208,2.366427241,-0.223694,0,0.223694,200.4,1.1,-6,0,0,1024,1024,1024,1024,200.4,-66.5,49,3.595,3.595,3.596,3.609,0,0,18.32,138.11,7424.963681,73.162732,6,P-GPS,
427000,10/10/2019 18:50,19.28332159,-99.13858931,73.162732,,,7424.963681,0.223694,1.803166068,14,0,14.395,7426.932185,75.131236,0.7158208,2.366427241,-0.223694,0,0.223694,200.5,0.6,-5.4,0,0,1024,1024,1024,1024,200.4,-66.5,49,3.595,3.595,3.596,3.609,0,0,18.32,138.11,7424.963681,73.162732,6,P-GPS,
427300,10/10/2019 18:50,19.28332114,-99.13858846,72.834648,,,7424.635597,0.3131716,1.490505297,14,0,14.395,7426.932185,75.131236,0.7158208,2.366427241,-0.223694,0.223694,0,199.8,0.7,-4,0,0,1024,1024,1024,1024,200.4,-49.7,49,3.595,3.595,3.596,3.609,0,0,18.32,138.11,7424.635597,72.834648,6,P-GPS,
427400,10/10/2019 18:50,19.28332103,-99.13858834,72.506564,,,7424.307513,0.3131716,1.44603023,14,0,14.395,7426.932185,75.131236,0.7158208,2.366427241,-0.223694,0.223694,0.223694,199.7,0.9,-3.7,0,0,1024,1024,1024,1024,200.4,-44,49,3.595,3.595,3.596,3.609,0,0,18.32,138.11,7424.307513,72.506564,6,P-GPS,
427500,10/10/2019 18:50,19.28332084,-99.13858799,72.506564,,,7424.307513,0.223694,1.320492168,14,0,14.395,7426.932185,75.131236,0.7158208,2.366427241,0,0.223694,0,199.9,0.4,-3.5,0,0,1024,1024,1024,1024,200.4,-38.4,49,3.595,3.595,3.596,3.609,0,0,18.32,138.11,7424.307513,72.506564,6,P-GPS,
427600,10/10/2019 18:50,19.28332078,-99.13858791,72.506564,,,7424.307513,0,1.28999676,14,0,14.395,7426.932185,75.131236,0.7158208,2.366427241,0,0,0,200,0.6,-3.3,0,0,1024,1024,1024,1024,200.4,-32.8,49,3.595,3.595,3.596,3.609,0,0,18.32,138.11,7424.307513,72.506564,6,P-GPS,
427700,10/10/2019 18:50,19.28332086,-99.1385877,72.506564,,,7424.307513,0,1.220711981,14,0,14.395,7426.932185,75.131236,0.7158208,2.366427241,0,0,0,200.1,0.5,-3.9,0,0,1024,1024,1024,1024,200.4,-27.1,49,3.595,3.595,3.596,3.609,0,0,18.32,138.11,7424.307513,72.506564,6,P-GPS,
427800,10/10/2019 18:50,19.28332081,-99.13858752,72.17848,,,7423.979429,0,1.156909486,14,0,14.395,7426.932185,75.131236,0.7158208,2.366427241,0,0,0,200,0.2,-3.9,0,0,1024,1024,1024,1024,200.4,-21.5,49,3.595,3.595,3.596,3.609,0,0,18.32,138.11,7423.979429,72.17848,6,P-GPS,
428000,10/10/2019 18:50,19.28332098,-99.1385873,72.17848,,,7423.979429,0,1.086607646,14,0,14.643,7426.932185,75.131236,0.7158208,2.366427241,0,0,0,199.9,-0.2,-3.8,0,0,1024,1024,1024,1024,200.4,-10.2,49,3.664,3.656,3.657,3.598,0,0,9.843,138.11,7423.979429,72.17848,6,P-GPS,
428100,10/10/2019 18:50,19.28332127,-99.13858719,72.17848,,,7423.979429,0.223694,1.065013157,14,0,14.643,7426.932185,75.131236,0.7158208,2.366427241,0.223694,0,0,199.8,-0.7,-4.4,0,0,1024,1024,1024,1024,200.4,-5.3,49,3.664,3.656,3.657,3.598,0,0,9.843,138.11,7423.979429,72.17848,6,P-GPS,
428200,10/10/2019 18:50,19.28332137,-99.13858716,72.17848,,,7423.979429,0.223694,1.062864207,14,0,14.643,7426.932185,75.131236,0.7158208,2.366427241,0.223694,0,0,199.7,-1,-5,0,0,1024,1024,1024,1024,200.4,-5.3,49,3.664,3.656,3.657,3.598,0,0,9.843,138.11,7423.979429,72.17848,6,P-GPS,
428300,10/10/2019 18:50,19.28332164,-99.13858707,72.17848,,,7423.979429,0.223694,1.062460664,14,0,14.643,7426.932185,75.131236,0.7158208,2.366427241,0.223694,0,-0.223694,199.6,-1.2,-5.5,0,0,1024,1024,1018,1024,200.4,-5.3,49,3.664,3.656,3.657,3.598,0,0,9.843,138.11,7423.979429,72.17848,6,P-GPS,
428400,10/10/2019 18:50,19.28332184,-99.13858695,71.850396,,,7423.651345,0.223694,1.054107645,14,0,14.643,7426.932185,75.131236,0.7158208,2.366427241,0.223694,0,0,199.6,-1.5,-5.7,0,0,1024,1024,631,1024,200.4,-5.3,49,3.664,3.656,3.657,3.598,0,0,9.843,138.11,7423.651345,71.850396,6,P-GPS,
428500,10/10/2019 18:50,19.28332209,-99.13858681,71.850396,,,7423.651345,0.223694,1.051850427,14,0,14.643,7426.932185,75.131236,0.7158208,2.366427241,0.223694,0,0,199.6,-2,-5.7,0,0,1024,1024,364,1024,200.4,-5.3,49,3.664,3.656,3.657,3.598,0,0,9.843,138.11,7423.651345,71.850396,6,P-GPS,
428600,10/10/2019 18:50,19.2833222,-99.13858673,71.850396,,,7423.651345,0.223694,1.04838586,14,0,14.643,7426.932185,75.131236,0.7158208,2.366427241,0.223694,0,0.223694,199.8,-2.8,-5.4,0,0,1024,1024,364,1024,200.3,-5.3,49,3.664,3.656,3.657,3.598,0,0,9.843,138.11,7423.651345,71.850396,6,P-GPS,
428700,10/10/2019 18:50,19.28332253,-99.13858665,71.522312,,,7423.323261,0.223694,1.097670639,14,0,14.643,7426.932185,75.131236,0.7158208,2.366427241,0.223694,0,1.11847,200,-3.4,-5.3,0,0,1024,1024,364,1024,200.3,-5.3,49,3.664,3.656,3.657,3.598,0,0,9.843,138.11,7423.323261,71.522312,6,P-GPS,
428800,10/10/2019 18:50,19.28332263,-99.13858659,71.194228,,,7422.995177,0,1.10451119,14,0,14.643,7426.932185,75.131236,0.7158208,2.366427241,0,0,1.789552,200.3,-4.1,-6.2,0,0,1024,1024,364,1024,200.3,-5.3,49,3.664,3.656,3.657,3.598,0,0,9.843,138.11,7422.995177,71.194228,6,P-GPS,
428900,10/10/2019 18:50,19.28332293,-99.13858647,70.866144,,,7422.667093,0.223694,1.150580745,14,0,14.643,7426.932185,75.131236,0.7158208,2.366427241,0.223694,0,2.684328,200.5,-4.2,-6.4,0,0,1024,1024,364,1024,200.3,-5.3,49,3.664,3.656,3.657,3.598,0,0,9.843,138.11,7422.667093,70.866144,6,P-GPS,
429000,10/10/2019 18:50,19.28332312,-99.13858641,70.209976,,,7422.010925,0,1.187687046,14,0,14.376,7426.932185,75.131236,0.7158208,2.366427241,0,0,3.579104,200.5,-4.2,-6.4,0,0,1024,1024,364,1024,200.3,-5.3,49,3.598,3.596,3.587,3.592,0,0,16.865,138.11,7422.010925,70.209976,6,P-GPS,
429100,10/10/2019 18:50,19.28332315,-99.13858618,69.553808,,,7421.354757,0,1.146174577,14,0,14.376,7426.932185,75.131236,0.7158208,2.366427241,0,0,4.250186,200.5,-4.1,-6,0,0,1024,1024,364,1024,200.3,-5.3,49,3.598,3.596,3.587,3.592,0,0,16.865,138.11,7421.354757,69.553808,6,P-GPS,
429200,10/10/2019 18:50,19.28332317,-99.13858611,68.569556,,,7420.370505,0,1.13763127,14,0,14.376,7426.932185,75.131236,0.7158208,2.366427241,0,0,4.921268,200.4,-3.4,-5.3,0,0,1024,1024,364,1024,200.3,-5.3,49,3.598,3.596,3.587,3.592,0,0,16.865,138.11,7420.370505,68.569556,6,P-GPS,
429300,10/10/2019 18:50,19.28332327,-99.1385861,67.585304,,,7419.386253,0,1.164025628,13,0,14.376,7426.932185,75.131236,0.7158208,2.366427241,0,0,5.368656,199.9,-2.4,-4.3,0,0,1024,1024,364,1024,200.3,-5.3,49,3.598,3.596,3.587,3.592,0,0,16.865,138.11,7419.386253,67.585304,6,P-GPS,
429400,10/10/2019 18:50,19.2833232,-99.13858613,66.601052,,,7418.402001,0,1.151240194,13,0,14.376,7426.932185,75.131236,0.7158208,2.366427241,0,0,6.039738,199,-1.1,-3.4,0,0,1024,1024,394,1024,200.3,-5.3,49,3.598,3.596,3.587,3.592,0,0,16.865,138.11,7418.402001,66.601052,6,P-GPS,
429500,10/10/2019 18:50,19.28332327,-99.13858605,65.6168,,,7417.417749,0,1.157145706,13,0,14.376,7426.932185,75.131236,0.7158208,2.366427241,0,0,6.039738,197.9,0.7,-3.4,0,0,1024,1024,801,1024,200.3,-5.3,49,3.598,3.596,3.587,3.592,0,0,16.865,138.11,7417.417749,65.6168,6,P-GPS,
429600,10/10/2019 18:50,19.28332328,-99.13858607,64.632548,,,7416.433497,0,1.163454762,13,0,14.376,7426.932185,75.131236,0.7158208,2.366427241,0,0,6.039738,196.3,2.8,-4,0,0,1024,1024,900,1024,200.2,-5.3,49,3.598,3.596,3.587,3.592,0,0,16.865,138.11,7416.433497,64.632548,6,P-GPS,
429700,10/10/2019 18:50,19.28332341,-99.13858619,63.648296,,,7415.449245,0.223694,1.225876023,13,0,14.376,7426.932185,75.131236,0.7158208,2.366427241,0.223694,0,5.368656,194.1,3.2,-4.5,0,0,1024,1024,1072,1024,200,-5.3,49,3.598,3.596,3.587,3.592,0,0,16.865,138.11,7415.449245,63.648296,6,P-GPS,
429800,10/10/2019 18:50,19.28332355,-99.13858613,62.664044,,,7414.464993,0.223694,1.256791379,13,0,14.376,7426.932185,75.131236,0.7158208,2.366427241,0.223694,0,4.47388,192.2,0.1,-3.9,0,0,1024,1024,1024,1024,199.6,-5.3,49,3.598,3.596,3.587,3.592,0,0,16.865,138.11,7414.464993,62.664044,6,P-GPS,
429900,10/10/2019 18:50,19.28332371,-99.13858595,62.007876,,,7413.808825,0.223694,1.276315658,13,0,14.376,7426.932185,75.131236,0.7158208,2.366427241,0.223694,0,3.35541,191.5,-2.3,-3.3,0,0,1024,1024,1024,1024,198.9,-5.3,49,3.598,3.596,3.587,3.592,0,0,16.865,138.11,7413.808825,62.007876,6,P-GPS,
430000,10/10/2019 18:50,19.28332382,-99.13858601,61.679792,,,7413.480741,0.223694,1.320059097,13,0,14.377,7426.932185,75.131236,0.7158208,2.366427241,0.223694,0,2.013246,192.1,-3.6,-3.5,0,0,1024,1024,1024,1024,198.1,-5.3,49,3.605,3.596,3.589,3.593,0,0,15.088,138.11,7413.480741,61.679792,6,P-GPS,
430100,10/10/2019 18:50,19.28332425,-99.13858566,61.679792,,,7413.480741,0.223694,1.41248036,13,0,14.377,7426.932185,75.131236,0.7158208,2.366427241,0.223694,0,1.342164,193.4,-3.9,-4.6,0,0,1024,1024,1024,1024,197.5,-5.3,49,3.605,3.596,3.589,3.593,0,0,15.088,138.11,7413.480741,61.679792,6,P-GPS,
430200,10/10/2019 18:50,19.28332438,-99.13858559,61.351708,,,7413.152657,0.223694,1.447880624,13,0,14.377,7426.932185,75.131236,0.7158208,2.366427241,0.223694,0,1.11847,194.8,-4.5,-5.3,0,0,1024,1024,1024,1024,197.1,-5.3,49,3.605,3.596,3.589,3.593,0,0,15.088,138.11,7413.152657,61.351708,6,P-GPS,
430300,10/10/2019 18:50,19.28332446,-99.13858519,61.351708,,,7413.152657,0,1.435331411,13,0,14.377,7426.932185,75.131236,0.7158208,2.366427241,0,0,0.671082,196.1,-5.1,-5.7,0,0,1024,1024,1024,1031,197,-5.3,49,3.605,3.596,3.589,3.593,0,0,15.088,138.11,7413.152657,61.351708,6,P-GPS,
430400,10/10/2019 18:50,19.28332449,-99.1385851,61.351708,,,7413.152657,0,1.437585348,13,0,14.377,7426.932185,75.131236,0.7158208,2.366427241,0,0,0.671082,197.2,-5.8,-5.6,0,0,1024,1024,1024,1288,196.9,-5.3,49,3.605,3.596,3.589,3.593,0,0,15.088,138.11,7413.152657,61.351708,6,P-GPS,
430500,10/10/2019 18:50,19.28332454,-99.13858493,61.023624,,,7412.824573,0.223694,1.445492172,13,0,14.377,7426.932185,75.131236,0.7158208,2.366427241,0,0.223694,0.447388,198.2,-5.9,-5.4,0,0,1024,1024,1024,1385,197.4,-5.3,49,3.605,3.596,3.589,3.593,0,0,15.088,138.11,7412.824573,61.023624,6,P-GPS,
430600,10/10/2019 18:50,19.28332448,-99.13858466,61.023624,,,7412.824573,0.223694,1.409875373,13,0,14.377,7426.932185,75.131236,0.7158208,2.366427241,-0.223694,0,0.447388,201.3,-5.4,-5.1,0,0,1024,1024,1024,1370,199.4,-5.3,49,3.605,3.596,3.589,3.593,0,0,15.088,138.11,7412.824573,61.023624,6,P-GPS,
430700,10/10/2019 18:50,19.28332439,-99.13858462,61.023624,,,7412.824573,0.223694,1.373320254,13,0,14.377,7426.932185,75.131236,0.7158208,2.366427241,-0.223694,0,0.223694,206.2,-4.7,-5,0,0,1024,1024,1024,1370,201.8,-5.3,49,3.605,3.596,3.589,3.593,0,0,15.088,138.11,7412.824573,61.023624,6,P-GPS,
430800,10/10/2019 18:50,19.28332419,-99.13858457,61.023624,,,7412.824573,0.447388,1.299747417,13,0,14.377,7426.932185,75.131236,0.7158208,2.366427241,-0.447388,0,0.223694,211.6,-4.1,-5.2,0,0,1024,1024,1024,1357,204.4,-5.3,49,3.605,3.596,3.589,3.593,0,0,15.088,138.11,7412.824573,61.023624,6,P-GPS,
430900,10/10/2019 18:50,19.28332401,-99.1385844,60.69554,,,7412.496489,0.447388,1.230876024,13,0,14.377,7426.932185,75.131236,0.7158208,2.366427241,-0.447388,0,0.447388,217.3,-3.3,-5,0,0,1024,1024,1024,1360,208.3,-5.3,49,3.605,3.596,3.589,3.593,0,0,15.088,138.11,7412.496489,60.69554,6,P-GPS,
431000,10/10/2019 18:50,19.28332374,-99.13858441,60.69554,,,7412.496489,0.671082,1.129737569,13,0,14.619,7426.932185,75.131236,0.7158208,2.366427241,-0.671082,0,0.447388,223.2,-2.9,-5,0,0,1024,1024,1024,1360,213.2,-5.3,49,3.673,3.657,3.65,3.65,0,0,10.372,138.11,7412.496489,60.69554,6,P-GPS,
431100,10/10/2019 18:50,19.28332339,-99.13858452,60.69554,,,7412.496489,0.671082,1.007227723,13,0,14.619,7426.932185,75.131236,0.7158208,2.366427241,-0.671082,0,0.223694,229.2,-2,-4.8,0,0,1024,1024,1024,1362,218.9,-5.3,49,3.673,3.657,3.65,3.65,0,0,10.372,138.11,7412.496489,60.69554,6,P-GPS,
