time(millisecond),datetime(utc),latitude,longitude,height_above_takeoff(feet),height_above_ground_at_drone_location(feet),ground_elevation_at_drone_location(feet),altitude_above_seaLevel(feet),speed(mph),distance(feet),satellites,gpslevel,voltage(v),max_altitude(feet),max_ascent(feet),max_speed(mph),max_distance(feet), xSpeed(mph), ySpeed(mph), zSpeed(mph), compass_heading(degrees), pitch(degrees), roll(degrees),isPhoto,isVideo,rc_elevator,rc_aileron,rc_throttle,rc_rudder,gimbal_heading(degrees),gimbal_pitch(degrees),battery_percent,voltageCell1,voltageCell2,voltageCell3,voltageCell4,voltageCell5,voltageCell6,current(A),battery_temperature(f),altitude(feet),ascent(feet),flycStateRaw,flycState,message,flightNumber
512000,10/10/2019 19:06,19.28343164,-99.13872559,0,Available with any HD 360 subscription,Available with any HD 360 subscription,7352.455354,0,0,10,0,0,7352.455354,0,0,0,0,0,0,189.6,0.3,-0.3,0,0,1024,1024,1024,1024,193.3,-2.4,45,3.789,3.793,3.789,3.797,0,0,0,134.51,7352.455354,0,6,P-GPS,,2
512100,10/10/2019 19:06,19.28343164,-99.13872559,0,,,7352.455354,0,0.000272428,10,0,0,7352.455354,0,0,0.000272428,0,0,0,189.6,0.3,-0.3,0,0,1024,1024,1024,1024,192,-2.4,45,3.789,3.793,3.789,3.797,0,0,0,134.51,7352.455354,0,6,P-GPS,,2
512200,10/10/2019 19:06,19.28343154,-99.13872557,0,,,7352.455354,0,0.034252626,10,0,0,7352.455354,0,0,0.034252626,0,0,0,189.6,0.3,-0.3,0,0,1024,1024,1024,1024,191.2,-2.4,45,3.789,3.793,3.789,3.797,0,0,0,134.51,7352.455354,0,6,P-GPS,,2
512300,10/10/2019 19:06,19.28343154,-99.13872557,0,,,7352.455354,0,0.034352035,10,0,0,7352.455354,0,0,0.034352035,0,0,0,189.6,0.3,-0.3,0,0,1024,1024,1024,1024,190.8,-2.4,45,3.789,3.793,3.789,3.797,0,0,0,134.51,7352.455354,0,6,P-GPS,,2
512400,10/10/2019 19:06,19.28343164,-99.13872557,0,,,7352.455354,0,0.005417487,10,0,0,7352.455354,0,0,0.034352035,0,0,0,189.6,0.3,-0.3,0,0,1024,1024,1024,1024,190.6,-2.4,45,3.789,3.793,3.789,3.797,0,0,0,134.51,7352.455354,0,6,P-GPS,,2
512500,10/10/2019 19:06,19.28343163,-99.13872556,0,,,7352.455354,0,0.011131759,10,0,0,7352.455354,0,0,0.034352035,0,0,0,189.6,0.3,-0.3,0,0,1024,1024,1024,1024,190.5,-2.4,45,3.789,3.793,3.789,3.797,0,0,0,134.51,7352.455354,0,6,P-GPS,,2
512600,10/10/2019 19:06,19.28343153,-99.13872565,0,,,7352.455354,0,0.044086616,10,0,0,7352.455354,0,0,0.044086616,0,0,0,189.6,0.3,-0.3,0,0,1024,1024,1024,1024,190.4,-2.4,45,3.789,3.793,3.789,3.797,0,0,0,134.51,7352.455354,0,6,P-GPS,,2
512700,10/10/2019 19:06,19.28343153,-99.13872565,0,,,7352.455354,0,0.044213912,10,0,0,7352.455354,0,0,0.044213912,0,0,0,189.6,0.3,-0.3,0,0,1024,1024,1024,1024,190.3,-2.4,45,3.789,3.793,3.789,3.797,0,0,0,134.51,7352.455354,0,6,P-GPS,,2
512800,10/10/2019 19:06,19.28343153,-99.13872566,0,,,7352.455354,0,0.044877954,10,0,15.168,7352.455354,0,0,0.044877954,0,0,0,189.6,0.3,-0.3,0,0,1024,1024,1024,1024,190.2,-2.4,45,3.789,3.793,3.789,3.797,0,0,0.97,134.51,7352.455354,0,6,P-GPS,Setting new Return-To-Home altitude to 30m (98 ft). Data Recorder File Index is 412,2
512900,10/10/2019 19:06,19.28343153,-99.13872566,0,,,7352.455354,0,0.045046261,10,0,15.168,7352.455354,0,0,0.045046261,0,0,0,189.6,0.3,-0.3,0,0,1024,1024,1024,1024,190.2,-2.4,45,3.789,3.793,3.789,3.797,0,0,0.97,134.51,7352.455354,0,6,P-GPS,,2
513000,10/10/2019 19:06,19.28343153,-99.13872566,0,,,7352.455354,0,0.044865487,10,0,15.168,7352.455354,0,0,0.045046261,0,0,0,189.6,0.3,-0.3,0,0,1024,1024,1024,1024,190.1,-2.4,45,3.789,3.793,3.789,3.797,0,0,0.97,134.51,7352.455354,0,6,P-GPS,,2
513100,10/10/2019 19:06,19.28343154,-99.13872568,0,,,7352.455354,0,0.047402232,10,0,15.168,7352.455354,0,0,0.047402232,0,0,0,189.6,0.3,-0.3,0,0,961,960,913,1219,190.1,-2.4,45,3.789,3.793,3.789,3.797,0,0,0.97,134.51,7352.455354,0,6,P-GPS,,2
513200,10/10/2019 19:06,19.28343154,-99.13872578,0,,,7352.455354,0,0.074333336,10,0,15.168,7352.455354,0,0,0.074333336,0,0,0,189.6,0.4,-0.3,0,0,364,364,383,1684,190.5,-2.4,45,3.789,3.793,3.789,3.797,0,0,0.97,134.51,7352.455354,0,6,P-GPS,,2
513400,10/10/2019 19:06,19.28343145,-99.13872576,0,,,7352.455354,0,0.089533139,10,0,15.168,7352.455354,0,0,0.089533139,0,0,0,189.5,0.4,-0.3,0,0,364,364,364,1684,193.9,-2.4,45,3.789,3.793,3.789,3.797,0,0,0.97,134.51,7352.455354,0,6,P-GPS,,2
513500,10/10/2019 19:06,19.28343145,-99.13872576,0,,,7352.455354,0,0.089999675,10,0,15.168,7352.455354,0,0,0.089999675,0,0,0,189.5,0.3,-0.3,0,0,364,364,364,1684,194,-2.4,45,3.789,3.793,3.789,3.797,0,0,0.97,134.51,7352.455354,0,6,P-GPS,,2
513600,10/10/2019 19:06,19.28343145,-99.13872586,0,,,7352.455354,0,0.115137471,10,0,15.168,7352.455354,0,0,0.115137471,0,0,0,189.5,0.4,-0.3,0,0,364,364,364,1684,194.1,-2.4,45,3.789,3.793,3.789,3.797,0,0,0.97,134.51,7352.455354,0,6,P-GPS,,2
513700,10/10/2019 19:06,19.28343144,-99.13872587,0,,,7352.455354,0,0.120107287,10,0,15.168,7352.455354,0,0,0.120107287,0,0,0,189.5,0.3,-0.3,0,0,364,364,364,1684,194.1,-2.4,45,3.789,3.793,3.789,3.797,0,0,0.97,134.51,7352.455354,0,6,P-GPS,,2
513800,10/10/2019 19:06,19.28343135,-99.13872587,0,,,7352.455354,0,0.143573495,10,0,15.168,7352.455354,0,0,0.143573495,0,0,0,189.6,0.3,-0.3,0,0,364,364,364,1684,194.1,-2.4,45,3.789,3.793,3.789,3.797,0,0,0.97,134.51,7352.455354,0,6,P-GPS,,2
513900,10/10/2019 19:06,19.28343134,-99.13872587,0,,,7352.455354,0,0.143619427,10,0,15.169,7352.455354,0,0,0.143619427,0,0,0,189.6,0.3,-0.3,0,0,364,364,364,1684,194.1,-2.4,45,3.79,3.793,3.789,3.797,0,0,0.968,134.51,7352.455354,0,10,Assisted_Takeoff,,2
514000,10/10/2019 19:06,19.28343134,-99.13872596,0,,,7352.455354,0,0.166842853,9,0,15.169,7352.455354,0,0,0.166842853,0,0,0,189.6,0.4,-0.4,0,0,364,364,364,1684,194.1,-2.4,45,3.79,3.793,3.789,3.797,0,0,0.968,134.51,7352.455354,0,10,Assisted_Takeoff,Return-to-Home Altitude:98FT,2
514100,10/10/2019 19:06,19.28343134,-99.13872596,0,,,7352.455354,0,0.166521987,9,0,15.169,7352.455354,0,0,0.166842853,0,0,0,189.6,0.4,-0.4,0,0,364,364,364,1684,194.1,-2.4,45,3.79,3.793,3.789,3.797,0,0,0.968,134.51,7352.455354,0,10,Assisted_Takeoff,,2
514200,10/10/2019 19:06,19.28343134,-99.13872596,0,,,7352.455354,0,0.16607448,9,0,15.169,7352.455354,0,0,0.166842853,0,0,0,189.6,0.5,-0.4,0,0,364,364,364,1684,194.1,-2.4,45,3.79,3.793,3.789,3.797,0,0,0.968,134.51,7352.455354,0,10,Assisted_Takeoff,,2
514300,10/10/2019 19:06,19.28343134,-99.13872596,0,,,7352.455354,0,0.168475727,9,0,15.169,7352.455354,0,0,0.168475727,0,0,0,189.6,0.5,-0.4,0,0,364,364,364,1684,194.1,-2.4,45,3.79,3.793,3.789,3.797,0,0,0.968,134.51,7352.455354,0,10,Assisted_Takeoff,,2
514400,10/10/2019 19:06,19.28343134,-99.13872596,0,,,7352.455354,0,0.16890158,9,0,15.169,7352.455354,0,0,0.16890158,0,0,0,189.6,0.5,-0.4,0,0,364,364,364,1684,194.1,-2.4,45,3.79,3.793,3.789,3.797,0,0,0.968,134.51,7352.455354,0,10,Assisted_Takeoff,,2
514500,10/10/2019 19:06,19.28343134,-99.13872596,0,,,7352.455354,0,0.168474743,9,0,15.169,7352.455354,0,0,0.16890158,0,0,0,189.6,0.5,-0.4,0,0,364,364,364,1684,194.1,-2.4,45,3.79,3.793,3.789,3.797,0,0,0.968,134.51,7352.455354,0,10,Assisted_Takeoff,,2
514600,10/10/2019 19:06,19.28343144,-99.13872587,0,,,7352.455354,0,0.120248363,9,0,15.169,7352.455354,0,0,0.16890158,0,0,0,189.6,0.5,-0.4,0,0,364,364,364,1684,194.1,-2.4,45,3.79,3.793,3.789,3.797,0,0,0.968,134.51,7352.455354,0,10,Assisted_Takeoff,,2
514700,10/10/2019 19:06,19.28343144,-99.13872587,0,,,7352.455354,0,0.120069886,9,0,15.169,7352.455354,0,0,0.16890158,0,0,0,189.5,0.5,-0.4,0,0,364,467,460,1561,194.1,-2.4,45,3.79,3.793,3.789,3.797,0,0,0.968,134.51,7352.455354,0,10,Assisted_Takeoff,,2
514800,10/10/2019 19:06,19.28343144,-99.13872577,0,,,7352.455354,0,0.094588258,9,0,15.169,7352.455354,0,0,0.16890158,0,0,0,189.5,0.5,-0.4,0,0,875,792,688,1413,193.7,-2.4,45,3.79,3.793,3.789,3.797,0,0,0.968,134.51,7352.455354,0,10,Assisted_Takeoff,,2
514900,10/10/2019 19:06,19.28343144,-99.13872577,0,,,7352.455354,0,0.094629924,9,0,15.166,7352.455354,0,0,0.16890158,0,0,0,189.5,0.5,-0.4,0,0,1024,1024,1024,1024,193.4,-2.4,45,3.789,3.792,3.789,3.796,0,0,1.046,134.51,7352.455354,0,10,Assisted_Takeoff,,2
515000,10/10/2019 19:06,19.28343145,-99.13872575,0,,,7352.455354,0,0.088564307,9,0,15.166,7352.455354,0,0,0.16890158,0,0,0,189.6,0.5,-0.4,0,0,1024,1024,1024,1024,192.2,-2.4,45,3.789,3.792,3.789,3.796,0,0,1.046,134.51,7352.455354,0,10,Assisted_Takeoff,,2
515100,10/10/2019 19:06,19.28343145,-99.13872575,0,,,7352.455354,0,0.089173231,9,0,15.166,7352.455354,0,0,0.16890158,0,0,0,189.6,0.3,-0.3,0,0,1024,1024,1024,1024,191.3,-2.4,45,3.789,3.792,3.789,3.796,0,0,1.046,134.51,7352.455354,0,10,Assisted_Takeoff,,2
515200,10/10/2019 19:06,19.28343145,-99.13872575,0,,,7352.455354,0,0.089187339,10,0,15.166,7352.455354,0,0,0.16890158,0,0,0,189.6,0.3,-0.3,0,0,1024,1024,1024,1024,190.9,-2.4,45,3.789,3.792,3.789,3.796,0,0,1.046,134.51,7352.455354,0,10,Assisted_Takeoff,,2
515300,10/10/2019 19:06,19.28343143,-99.13872577,0,,,7352.455354,0,0.099467523,10,0,15.166,7352.455354,0,0,0.16890158,0,0,0,189.6,0.3,-0.3,0,0,1024,1024,1024,1024,190.6,-2.4,45,3.789,3.792,3.789,3.796,0,0,1.046,134.51,7352.455354,0,10,Assisted_Takeoff,,2
515500,10/10/2019 19:06,19.28343143,-99.13872567,0,,,7352.455354,0,0.081082352,10,0,15.166,7352.455354,0,0,0.16890158,0,0,0,189.6,0.3,-0.3,0,0,824,934,975,1184,190.4,-2.4,45,3.789,3.792,3.789,3.796,0,0,1.046,134.51,7352.455354,0,10,Assisted_Takeoff,,2
515600,10/10/2019 19:06,19.28343154,-99.13872564,0,,,7352.455354,0,0.040476707,10,0,15.166,7352.455354,0,0,0.16890158,0,0,0,189.6,0.3,-0.3,0,0,364,477,364,1511,190.4,-2.4,45,3.789,3.792,3.789,3.796,0,0,1.046,134.51,7352.455354,0,10,Assisted_Takeoff,,2
515700,10/10/2019 19:06,19.28343154,-99.13872564,0,,,7352.455354,0,0.040274936,10,0,15.166,7352.455354,0,0,0.16890158,0,0,0,189.7,0.4,-0.3,0,0,364,364,364,1627,192.7,-2.4,45,3.789,3.792,3.789,3.796,0,0,1.046,134.51,7352.455354,0,10,Assisted_Takeoff,,2
515800,10/10/2019 19:06,19.28343154,-99.13872553,0,,,7352.455354,0,0.040347442,10,0,15.166,7352.455354,0,0,0.16890158,0,0,0,189.6,0.5,-0.3,0,0,364,364,364,1615,193.9,-2.4,45,3.789,3.792,3.789,3.796,0,0,1.046,134.51,7352.455354,0,10,Assisted_Takeoff,,2
515900,10/10/2019 19:06,19.28343155,-99.13872555,0,,,7352.455354,0,0.033304135,10,0,15.166,7352.455354,0,0,0.16890158,0,0,0,189.6,0.5,-0.4,0,0,364,364,364,1601,194.2,-2.4,45,3.789,3.792,3.789,3.796,0,0,1.046,134.51,7352.455354,0,10,Assisted_Takeoff,,2
516000,10/10/2019 19:06,19.28343155,-99.13872555,0,,,7352.455354,0,0.033634516,10,0,15.063,7352.455354,0,0,0.16890158,0,0,0,189.6,0.5,-0.4,0,0,364,364,364,1561,194.2,-2.4,45,3.755,3.776,3.783,3.793,0,0,2.146,134.51,7352.455354,0,10,Assisted_Takeoff,,2
516100,10/10/2019 19:06,19.28343155,-99.13872555,0,,,7352.455354,0,0.034911747,10,0,15.063,7352.455354,0,0,0.16890158,0,0,0,189.6,0.5,-0.4,0,0,632,690,692,1374,194.2,-2.4,45,3.755,3.776,3.783,3.793,0,0,2.146,134.51,7352.455354,0,10,Assisted_Takeoff,,2
516200,10/10/2019 19:06,19.28343154,-99.13872556,0,,,7352.455354,0,0.03497113,10,0,15.063,7352.455354,0,0,0.16890158,0,0,0,189.6,0.5,-0.4,0,0,1024,1024,1024,1024,193.8,-2.4,45,3.755,3.776,3.783,3.793,0,0,2.146,134.51,7352.455354,0,10,Assisted_Takeoff,,2
516400,10/10/2019 19:06,19.28343154,-99.13872557,0,,,7352.455354,0,0.036529857,10,0,15.063,7352.455354,0,0,0.16890158,0,0,0,189.6,0.4,-0.3,0,0,1024,1024,1024,1024,192.4,-2.4,45,3.755,3.776,3.783,3.793,0,0,2.146,134.51,7352.455354,0,10,Assisted_Takeoff,,2
516500,10/10/2019 19:06,19.28343154,-99.13872557,0,,,7352.455354,0,0.034204726,10,0,15.063,7352.455354,0,0,0.16890158,0,0,0,189.6,0.4,-0.3,0,0,1024,1024,1503,1024,191.6,-2.4,45,3.755,3.776,3.783,3.793,0,0,2.146,134.51,7352.455354,0,10,Assisted_Takeoff,,2
516600,10/10/2019 19:06,19.28343154,-99.13872547,0,,,7352.455354,0,0.052404201,10,0,15.063,7352.455354,0,0,0.16890158,0,0,0,189.6,0.4,-0.3,0,0,1024,1024,1684,1026,191.1,-2.4,45,3.755,3.776,3.783,3.793,0,0,2.146,134.51,7352.455354,0,10,Assisted_Takeoff,,2
516700,10/10/2019 19:06,19.28343154,-99.13872547,0,,,7352.455354,0,0.052455382,10,0,15.063,7352.455354,0,0,0.16890158,0,0,0,189.6,0.4,-0.3,0,0,1024,1024,1684,1074,190.9,-2.4,45,3.755,3.776,3.783,3.793,0,0,2.146,134.51,7352.455354,0,10,Assisted_Takeoff,,2
516800,10/10/2019 19:06,19.28343155,-99.13872546,0,,,7352.455354,0,0.054671918,10,0,15.063,7352.455354,0,0,0.16890158,0,0,0,189.6,0.5,-0.3,0,0,1024,1024,1024,1024,190.6,-2.4,45,3.755,3.776,3.783,3.793,0,0,2.146,134.51,7352.455354,0,10,Assisted_Takeoff,,2
516900,10/10/2019 19:06,19.28343155,-99.13872546,0,,,7352.455354,0,0.054623689,10,0,15.063,7352.455354,0,0,0.16890158,0,0,0,189.6,0.5,-0.4,0,0,1024,1024,1024,1024,190.5,-2.4,45,3.755,3.776,3.783,3.793,0,0,2.146,134.51,7352.455354,0,10,Assisted_Takeoff,,2
517000,10/10/2019 19:06,19.28343156,-99.13872545,0,,,7352.455354,0,0.054788388,10,0,15.063,7352.455354,0,0,0.16890158,0,0,0,189.6,0.6,-0.5,0,0,1024,1024,1043,1024,190.4,-2.4,45,3.755,3.776,3.783,3.793,0,0,2.146,134.51,7352.455354,0,10,Assisted_Takeoff,,2
517100,10/10/2019 19:06,19.28343155,-99.13872545,0,,,7352.455354,0,0.056801839,10,0,15.144,7352.455354,0,0,0.16890158,0,0,0,189.6,0.6,-0.4,0,0,1024,1024,1455,1024,190.4,-2.4,44,3.784,3.788,3.783,3.789,0,0,1.808,134.51,7352.455354,0,10,Assisted_Takeoff,,2
517200,10/10/2019 19:06,19.28343164,-99.13872545,0,,,7352.455354,0,0.046593505,10,0,15.144,7352.455354,0,0,0.16890158,0,0,0,189.6,0.5,-0.3,0,0,1024,1024,1684,1024,190.3,-2.4,44,3.784,3.788,3.783,3.789,0,0,1.808,134.51,7352.455354,0,10,Assisted_Takeoff,,2
517300,10/10/2019 19:06,19.28343163,-99.13872545,0,,,7352.455354,0,0.04821424,10,0,15.144,7352.455354,0,0,0.16890158,0,0,0,189.6,0.6,-0.3,0,0,1024,1024,1678,1024,190.3,-2.4,44,3.784,3.788,3.783,3.789,0,0,1.808,134.51,7352.455354,0,10,Assisted_Takeoff,,2
517400,10/10/2019 19:06,19.28343163,-99.13872535,0,,,7352.455354,0,0.083308074,10,0,15.144,7352.455354,0,0,0.16890158,0,0,0,189.6,0.6,-0.3,0,0,1024,1024,1169,1024,190.3,-2.4,44,3.784,3.788,3.783,3.789,0,0,1.808,134.51,7352.455354,0,10,Assisted_Takeoff,,2
517600,10/10/2019 19:06,19.28343159,-99.13872542,0,,,7352.455354,0,0.060189306,10,0,15.144,7352.455354,0,0,0.16890158,0,0,-0.223694,188.8,3.8,0.3,0,0,1024,1024,1024,1024,190.2,-2.4,44,3.784,3.788,3.783,3.789,0,0,1.808,134.51,7352.455354,0,10,Assisted_Takeoff,,2
517700,10/10/2019 19:06,19.2834317,-99.13872543,0,,,7352.455354,0.223694,0.058483926,10,0,15.144,7352.455354,0,0.223694,0.16890158,0.223694,0,-0.447388,187.8,5.3,1.3,0,0,1024,1024,1024,1024,190,-2.4,44,3.784,3.788,3.783,3.789,0,0,1.808,134.51,7352.455354,0,10,Assisted_Takeoff,,2
517800,10/10/2019 19:06,19.28343191,-99.13872542,0,,,7352.455354,0.447388,0.1148294,10,0,15.144,7352.455354,0,0.447388,0.16890158,0.447388,0,0,186.8,5.3,1.2,0,0,1024,1024,1024,1024,189.6,-2.4,44,3.784,3.788,3.783,3.789,0,0,1.808,134.51,7352.455354,0,10,Assisted_Takeoff,,2
517900,10/10/2019 19:06,19.28343217,-99.13872544,0,,,7352.455354,0.671082,0.201078419,10,0,15.144,7352.455354,0,0.671082,0.201078419,0.671082,0,0.223694,185.9,4.9,0.7,0,0,1024,1024,1024,1024,189.1,-2.4,44,3.784,3.788,3.783,3.789,0,0,1.808,134.51,7352.455354,0,10,Assisted_Takeoff,,2
518000,10/10/2019 19:06,19.28343311,-99.13872543,0,,,7352.455354,0.894776,0.541663403,10,0,15.144,7352.455354,0,0.894776,0.541663403,0.894776,0,1.11847,185,4.3,0.4,0,0,1024,1024,1024,1024,188.6,-2.4,44,3.784,3.788,3.783,3.789,0,0,1.808,134.51,7352.455354,0,10,Assisted_Takeoff,,2
518100,10/10/2019 19:06,19.28343344,-99.1387254,0,,,7352.455354,0.223694,0.660223118,10,0,15.144,7352.455354,0,0.894776,0.660223118,0.223694,0,-0.223694,185.5,4.5,0.7,0,0,1024,1024,1024,1024,188.6,-2.4,44,3.784,3.788,3.783,3.789,0,0,1.808,134.51,7352.455354,0,10,Assisted_Takeoff,,2
518200,10/10/2019 19:06,19.28343298,-99.13872541,0,,,7352.455354,0,0.495715239,10,0,14.832,7352.455354,0,0.894776,0.660223118,0,0,0,185.6,5.2,-0.1,0,0,1024,1024,1024,1024,187.8,-2.4,44,3.71,3.711,3.705,3.706,0,0,6.194,134.51,7352.455354,0,10,Assisted_Takeoff,,2
518300,10/10/2019 19:06,19.28343292,-99.13872536,0,,,7352.455354,0.223694,0.474849097,10,0,14.832,7352.455354,0,0.894776,0.660223118,-0.223694,0,0,185.3,2.4,-0.5,0,0,1024,1024,1024,1024,187.8,-2.4,44,3.71,3.711,3.705,3.706,0,0,6.194,134.51,7352.455354,0,10,Assisted_Takeoff,,2
518400,10/10/2019 19:06,19.28343283,-99.1387253,0,,,7352.455354,0,0.448477705,10,0,14.832,7352.455354,0,0.894776,0.660223118,0,0,0,185.4,-1,-0.2,0,0,1024,1024,1024,1024,187.6,-2.4,44,3.71,3.711,3.705,3.706,0,0,6.194,134.51,7352.455354,0,10,Assisted_Takeoff,,2
518500,10/10/2019 19:06,19.28343281,-99.13872528,0,,,7352.455354,0,0.440344502,10,0,14.832,7352.455354,0,0.894776,0.660223118,0,0,0,185.5,1.1,-0.2,0,0,1024,1024,1024,1024,187.5,-2.4,44,3.71,3.711,3.705,3.706,0,0,6.194,134.51,7352.455354,0,10,Assisted_Takeoff,,2
518600,10/10/2019 19:06,19.28343274,-99.13872541,0,,,7352.455354,0,0.405597126,10,0,14.832,7352.455354,0,0.894776,0.660223118,0,0,0,185.6,0,-0.2,0,0,1024,1024,1024,1024,187.4,-2.4,44,3.71,3.711,3.705,3.706,0,0,6.194,134.51,7352.455354,0,10,Assisted_Takeoff,,2
518700,10/10/2019 19:06,19.28343275,-99.13872546,0,,,7352.455354,0,0.409776916,10,0,14.832,7352.455354,0,0.894776,0.660223118,0,0,0,185.6,0.4,-0.3,0,0,1024,1024,1024,1024,187.3,-2.4,44,3.71,3.711,3.705,3.706,0,0,6.194,134.51,7352.455354,0,10,Assisted_Takeoff,,2
518800,10/10/2019 19:06,19.28343248,-99.13872557,0,,,7352.455354,0,0.309254275,9,0,14.832,7352.455354,0,0.894776,0.660223118,0,0,0,185.6,0.1,-0.2,0,0,1024,1024,1024,1024,187.3,-2.4,44,3.71,3.711,3.705,3.706,0,0,6.194,134.51,7352.455354,0,10,Assisted_Takeoff,,2
518900,10/10/2019 19:06,19.2834325,-99.13872555,0,,,7352.455354,0,0.316815299,9,0,14.832,7352.455354,0,0.894776,0.660223118,0,0,0,185.6,0.1,-0.2,0,0,1024,1024,1024,1024,187.2,-2.4,44,3.71,3.711,3.705,3.706,0,0,6.194,134.51,7352.455354,0,10,Assisted_Takeoff,,2
519000,10/10/2019 19:06,19.28343264,-99.13872548,0,,,7352.455354,0,0.367513135,9,0,14.832,7352.455354,0,0.894776,0.660223118,0,0,0,185.7,0,-0.3,0,0,1024,1024,1024,1024,187.2,-2.4,44,3.71,3.711,3.705,3.706,0,0,6.194,134.51,7352.455354,0,10,Assisted_Takeoff,,2
519100,10/10/2019 19:06,19.28343264,-99.13872548,0,,,7352.455354,0,0.368923896,9,0,14.832,7352.455354,0,0.894776,0.660223118,0,0,-0.223694,185.7,0.2,-0.2,0,0,1024,1024,1024,1024,187.2,-2.4,44,3.71,3.711,3.705,3.706,0,0,6.194,134.51,7352.455354,0,10,Assisted_Takeoff,,2
519200,10/10/2019 19:06,19.28343274,-99.13872537,0.328084,,,7352.783438,0,0.40932416,9,0,14.99,7352.783438,0.328084,0.894776,0.660223118,0,0,-0.223694,185.7,0.1,-0.2,0,0,1024,1024,1024,1024,187.1,-2.4,44,3.733,3.753,3.751,3.765,0,0,5.426,134.51,7352.783438,0.328084,10,Assisted_Takeoff,,2
519300,10/10/2019 19:06,19.28343282,-99.13872539,0.328084,,,7352.783438,0,0.437713269,9,0,14.99,7352.783438,0.328084,0.894776,0.660223118,0,0,-0.223694,185.8,0.1,-0.2,0,0,1024,1024,1024,1024,187.1,-2.4,44,3.733,3.753,3.751,3.765,0,0,5.426,134.51,7352.783438,0.328084,10,Assisted_Takeoff,,2
519400,10/10/2019 19:06,19.28343282,-99.13872529,0.656168,,,7353.111522,0,0.445252639,9,0,14.99,7353.111522,0.656168,0.894776,0.660223118,0,0,-0.223694,185.8,0.1,-0.2,0,0,1024,1024,1024,1024,187.1,-2.4,44,3.733,3.753,3.751,3.765,0,0,5.426,134.51,7353.111522,0.656168,10,Assisted_Takeoff,,2
519500,10/10/2019 19:06,19.28343283,-99.13872529,0.656168,,,7353.111522,0,0.447237547,9,0,14.99,7353.111522,0.656168,0.894776,0.660223118,0,0,-0.223694,185.8,0.1,-0.3,0,0,1024,1024,1024,1024,187,-2.4,44,3.733,3.753,3.751,3.765,0,0,5.426,134.51,7353.111522,0.656168,10,Assisted_Takeoff,,2
519700,10/10/2019 19:06,19.28343279,-99.13872527,0.984252,,,7353.439606,0,0.43576773,9,0,14.99,7353.439606,0.984252,0.894776,0.660223118,0,0,-0.447388,185.8,0.1,-0.3,0,0,1024,1024,1024,1024,187,-2.4,44,3.733,3.753,3.751,3.765,0,0,5.426,134.51,7353.439606,0.984252,10,Assisted_Takeoff,,2
519800,10/10/2019 19:06,19.28343289,-99.13872517,0.984252,,,7353.439606,0,0.481358283,9,0,14.99,7353.439606,0.984252,0.894776,0.660223118,0,0,-0.447388,185.8,0.1,-0.2,0,0,1024,1024,1024,1024,187,-2.4,44,3.733,3.753,3.751,3.765,0,0,5.426,134.51,7353.439606,0.984252,10,Assisted_Takeoff,,2
519900,10/10/2019 19:06,19.28343286,-99.13872516,1.312336,,,7353.76769,0,0.47099411,9,0,14.99,7353.76769,1.312336,0.894776,0.660223118,0,0,-0.447388,185.8,0.1,-0.2,0,0,1024,1024,1024,1024,187,-2.4,44,3.733,3.753,3.751,3.765,0,0,5.426,134.51,7353.76769,1.312336,10,Assisted_Takeoff,,2
520000,10/10/2019 19:06,19.28343286,-99.13872516,1.312336,,,7353.76769,0,0.471975081,10,0,14.99,7353.76769,1.312336,0.894776,0.660223118,0,0,-0.447388,185.8,0.1,-0.2,0,0,1024,1024,1024,1024,186.9,-2.4,44,3.733,3.753,3.751,3.765,0,0,5.426,134.51,7353.76769,1.312336,10,Assisted_Takeoff,,2
520100,10/10/2019 19:06,19.28343287,-99.13872516,1.64042,,,7354.095774,0,0.472864188,10,0,14.99,7354.095774,1.64042,0.894776,0.660223118,0,0,-0.447388,185.8,0.1,-0.2,0,0,1024,1024,1061,1024,186.9,-2.4,44,3.733,3.753,3.751,3.765,0,0,5.426,134.51,7354.095774,1.64042,10,Assisted_Takeoff,,2
520200,10/10/2019 19:06,19.28343296,-99.13872508,1.64042,,,7354.095774,0,0.513231644,10,0,14.99,7354.095774,1.64042,0.894776,0.660223118,0,0,-0.447388,185.8,0.1,-0.2,0,0,1024,1024,1377,1024,186.9,-2.4,44,3.733,3.753,3.751,3.765,0,0,5.426,134.51,7354.095774,1.64042,10,Assisted_Takeoff,,2
520400,10/10/2019 19:06,19.28343296,-99.13872497,1.968504,,,7354.423858,0,0.527637812,10,0,15.115,7354.423858,1.968504,0.894776,0.660223118,0,0,-0.223694,185.9,0.1,-0.2,0,0,1024,1024,1641,1024,186.9,-2.4,44,3.774,3.78,3.779,3.786,0,0,1.461,134.51,7354.423858,1.968504,10,Assisted_Takeoff,,2
520500,10/10/2019 19:06,19.28343296,-99.13872496,1.968504,,,7354.423858,0,0.527230988,10,0,15.115,7354.423858,1.968504,0.894776,0.660223118,0,0,-0.223694,185.9,0.1,-0.2,0,0,1024,1024,1684,1024,186.8,-2.4,44,3.774,3.78,3.779,3.786,0,0,1.461,134.51,7354.423858,1.968504,10,Assisted_Takeoff,,2
520600,10/10/2019 19:06,19.28343306,-99.13872486,1.968504,,,7354.423858,0,0.576125347,10,0,15.115,7354.423858,1.968504,0.894776,0.660223118,0,0,-0.223694,185.9,0.2,-0.2,0,0,1024,1024,1614,1024,186.8,-2.4,44,3.774,3.78,3.779,3.786,0,0,1.461,134.51,7354.423858,1.968504,10,Assisted_Takeoff,,2
520700,10/10/2019 19:06,19.28343306,-99.13872486,1.968504,,,7354.423858,0,0.578093851,10,0,15.115,7354.423858,1.968504,0.894776,0.660223118,0,0,0,185.9,0.3,-0.3,0,0,1024,1024,1448,1024,186.8,-2.4,44,3.774,3.78,3.779,3.786,0,0,1.461,134.51,7354.423858,1.968504,10,Assisted_Takeoff,,2
520800,10/10/2019 19:06,19.28343307,-99.13872477,1.968504,,,7354.423858,0,0.594629284,10,0,15.115,7354.423858,1.968504,0.894776,0.660223118,0,0,0,185.7,0.6,-0.4,0,0,1024,1024,1106,1024,186.8,-2.4,44,3.774,3.78,3.779,3.786,0,0,1.461,134.51,7354.423858,1.968504,10,Assisted_Takeoff,,2
520900,10/10/2019 19:06,19.2834331,-99.13872474,1.968504,,,7354.423858,0,0.606381253,10,0,15.115,7354.423858,1.968504,0.894776,0.660223118,0,0,-0.223694,185,2.8,-0.3,0,0,1024,1024,1389,1024,186.7,-2.4,44,3.774,3.78,3.779,3.786,0,0,1.461,134.51,7354.423858,1.968504,10,Assisted_Takeoff,,2
521100,10/10/2019 19:06,19.28343333,-99.13872466,2.296588,,,7354.751942,0.447388,0.69643703,10,0,15.115,7354.751942,2.296588,0.894776,0.69643703,0.447388,0,-0.894776,183.1,3.4,0.6,0,0,1024,1024,1024,1024,186.5,-2.4,44,3.774,3.78,3.779,3.786,0,0,1.461,134.51,7354.751942,2.296588,6,P-GPS,,2
521200,10/10/2019 19:06,19.2834336,-99.13872454,2.296588,,,7354.751942,0.447388,0.801748713,10,0,15.115,7354.751942,2.296588,0.894776,0.801748713,0.447388,0,-1.342164,182.3,2.4,0.9,0,0,1024,1024,1024,1024,186.3,-2.4,44,3.774,3.78,3.779,3.786,0,0,1.461,134.51,7354.751942,2.296588,6,P-GPS,,2
521300,10/10/2019 19:06,19.28343383,-99.13872454,2.296588,,,7354.751942,0.671082,0.877342548,10,0,15.115,7354.751942,2.296588,0.894776,0.877342548,0.671082,0,-1.11847,181.9,1.5,1,0,0,1024,1024,1283,1024,186,-2.4,44,3.774,3.78,3.779,3.786,0,0,1.461,134.51,7354.751942,2.296588,6,P-GPS,,2
521400,10/10/2019 19:06,19.28343432,-99.13872435,2.624672,,,7355.080026,0.671082,1.06701447,10,0,15.115,7355.080026,2.624672,0.894776,1.06701447,0.671082,0,-1.11847,181.8,0.7,0.9,0,0,1024,1024,1493,1024,185.8,-2.4,44,3.774,3.78,3.779,3.786,0,0,1.461,134.51,7355.080026,2.624672,6,P-GPS,,2
521500,10/10/2019 19:06,19.28343458,-99.13872435,2.952756,,,7355.40811,0.447388,1.153946887,10,0,15.115,7355.40811,2.952756,0.894776,1.153946887,0.671082,0,-1.11847,182,-0.2,0.9,0,0,1024,1024,1216,1024,185.5,-2.4,44,3.774,3.78,3.779,3.786,0,0,1.461,134.51,7355.40811,2.952756,6,P-GPS,,2
521600,10/10/2019 19:06,19.28343477,-99.13872433,3.28084,,,7355.736194,0.447388,1.221637178,11,0,15.115,7355.736194,3.28084,0.894776,1.221637178,0.447388,0,-1.342164,181.9,-1.2,0.7,0,0,1024,1024,1024,1024,185.1,-2.4,44,3.774,3.78,3.779,3.786,0,0,1.461,134.51,7355.736194,3.28084,6,P-GPS,,2
521800,10/10/2019 19:06,19.28343528,-99.13872436,3.608924,,,7356.064278,0.447388,1.396056475,11,0,15.115,7356.064278,3.608924,0.894776,1.396056475,0.447388,0,-1.565858,181.5,-1.8,0.9,0,0,1024,1024,1075,1024,184.9,-2.4,44,3.774,3.78,3.779,3.786,0,0,1.461,134.51,7356.064278,3.608924,6,P-GPS,,2
521900,10/10/2019 19:06,19.28343548,-99.13872439,3.937008,,,7356.392362,0.223694,1.461289417,11,0,15.115,7356.392362,3.937008,0.894776,1.461289417,0.223694,0,-1.11847,181.7,-2.8,0.7,0,0,1024,1024,1439,1024,184.8,-2.4,44,3.774,3.78,3.779,3.786,0,0,1.461,134.51,7356.392362,3.937008,6,P-GPS,,2
522000,10/10/2019 19:06,19.28343572,-99.13872446,4.265092,,,7356.720446,0.223694,1.53918312,11,0,15.115,7356.720446,4.265092,0.894776,1.53918312,0.223694,0,-0.894776,181.8,-3.4,0.2,0,0,1024,1024,1568,1024,184.6,-2.4,44,3.774,3.78,3.779,3.786,0,0,1.461,134.51,7356.720446,4.265092,6,P-GPS,,2
522200,10/10/2019 19:06,19.28343649,-99.13872461,4.593176,,,7357.04853,0,1.802739559,11,0,15.115,7357.04853,4.593176,0.894776,1.802739559,0,0,-1.342164,181.6,-2.4,-0.4,0,0,1024,1024,1486,1024,184.5,-2.4,44,3.774,3.78,3.779,3.786,0,0,1.461,134.51,7357.04853,4.593176,6,P-GPS,,2
522200,10/10/2019 19:06,19.28343649,-99.13872461,4.593176,,,7357.04853,0,1.802739559,11,0,15.115,7357.04853,4.593176,0.894776,1.802739559,0,0,-1.342164,181.6,-2.4,-0.4,0,0,1024,1024,1448,1024,184.4,-2.4,44,3.774,3.78,3.779,3.786,0,0,1.461,134.51,7357.04853,4.593176,6,P-GPS,,2
522300,10/10/2019 19:06,19.28343654,-99.13872463,4.92126,,,7357.376614,0,1.820226436,11,0,15.115,7357.376614,4.92126,0.894776,1.820226436,0,0,-2.23694,181.2,-1.5,-0.5,0,0,1024,1024,1247,1024,184.2,-2.4,44,3.774,3.78,3.779,3.786,0,0,1.461,134.51,7357.376614,4.92126,6,P-GPS,,2
522400,10/10/2019 19:06,19.28343627,-99.13872456,5.249344,,,7357.704698,0,1.727477089,11,0,15.115,7357.704698,5.249344,0.894776,1.820226436,0,0,-3.131716,180.9,-0.6,-0.2,0,0,1024,1024,1024,1024,184.1,-2.4,44,3.774,3.78,3.779,3.786,0,0,1.461,134.51,7357.704698,5.249344,6,P-GPS,,2
522500,10/10/2019 19:06,19.28343631,-99.13872455,5.577428,,,7358.032782,0,1.742355699,11,0,15.115,7358.032782,5.577428,0.894776,1.820226436,0,0,-3.579104,181.1,-0.2,0,0,0,1024,1024,1024,1024,183.9,-2.4,44,3.774,3.78,3.779,3.786,0,0,1.461,134.51,7358.032782,5.577428,6,P-GPS,,2
522700,10/10/2019 19:06,19.28343649,-99.13872475,6.56168,,,7359.017034,0,1.795334703,11,0,15.115,7359.017034,6.56168,0.894776,1.820226436,0,0,-2.684328,182.4,-1.8,0.1,0,0,1024,1024,1091,1024,183.8,-2.4,44,3.774,3.78,3.779,3.786,0,0,1.461,134.51,7359.017034,6.56168,6,P-GPS,,2
522800,10/10/2019 19:06,19.28343649,-99.13872479,6.889764,,,7359.345118,0,1.791542052,11,0,15.115,7359.345118,6.889764,0.894776,1.820226436,0,0,-2.013246,183.1,-2.4,-0.2,0,0,1024,1024,1339,1024,183.8,-2.4,44,3.774,3.78,3.779,3.786,0,0,1.461,134.51,7359.345118,6.889764,6,P-GPS,,2
522900,10/10/2019 19:06,19.28343646,-99.13872478,7.217848,,,7359.673202,0,1.780866199,11,0,15.115,7359.673202,7.217848,0.894776,1.820226436,0,0,-1.565858,183.4,-2.6,-0.4,0,0,1024,1024,1437,1024,183.7,-2.4,44,3.774,3.78,3.779,3.786,0,0,1.461,134.51,7359.673202,7.217848,6,P-GPS,,2
523000,10/10/2019 19:06,19.28343657,-99.13872503,7.545932,,,7360.001286,0,1.811230373,11,0,15.115,7360.001286,7.545932,0.894776,1.820226436,0,0,-2.013246,183.4,-2,-0.4,0,0,1024,1024,1425,1024,183.7,-2.4,44,3.774,3.78,3.779,3.786,0,0,1.461,134.51,7360.001286,7.545932,6,P-GPS,,2
523100,10/10/2019 19:06,19.28343651,-99.138725,7.874016,,,7360.32937,0,1.789652288,11,0,15.115,7360.32937,7.874016,0.894776,1.820226436,0,0,-2.460634,183,-0.9,-0.7,0,0,1024,1024,1458,1024,183.7,-2.4,44,3.774,3.78,3.779,3.786,0,0,1.461,134.51,7360.32937,7.874016,6,P-GPS,,2
523300,10/10/2019 19:06,19.28343653,-99.13872483,8.858268,,,7361.313622,0,1.806276305,11,0,15.115,7361.313622,8.858268,0.894776,1.820226436,0,0,-4.026492,181.9,0.4,-0.7,0,0,1024,1024,1337,1024,183.7,-2.4,44,3.774,3.78,3.779,3.786,0,0,1.461,134.51,7361.313622,8.858268,6,P-GPS,,2
523400,10/10/2019 19:06,19.28343667,-99.13872487,9.514436,,,7361.96979,0,1.852965939,11,0,15.115,7361.96979,9.514436,0.894776,1.852965939,0,0,-4.250186,181.7,-0.4,-0.1,0,0,1024,1024,1139,1024,183.7,-2.4,44,3.774,3.78,3.779,3.786,0,0,1.461,134.51,7361.96979,9.514436,6,P-GPS,,2
523400,10/10/2019 19:06,19.28343667,-99.13872487,9.514436,,,7361.96979,0,1.852965939,11,0,15.115,7361.96979,9.514436,0.894776,1.852965939,0,0,-4.250186,181.7,-0.4,-0.1,0,0,1024,1024,1024,1024,183.6,-2.4,44,3.774,3.78,3.779,3.786,0,0,1.461,134.51,7361.96979,9.514436,6,P-GPS,,2
523600,10/10/2019 19:06,19.28343689,-99.13872484,10.498688,,,7362.954042,0,1.932952818,11,0,15.115,7362.954042,10.498688,0.894776,1.932952818,0,0,-3.131716,182.4,-2.9,0.1,0,0,1024,1024,1024,1024,183.6,-2.4,44,3.774,3.78,3.779,3.786,0,0,1.461,134.51,7362.954042,10.498688,6,P-GPS,,2
523600,10/10/2019 19:06,19.28343689,-99.13872484,10.498688,,,7362.954042,0,1.932952818,11,0,15.115,7362.954042,10.498688,0.894776,1.932952818,0,0,-3.131716,182.4,-2.9,0.1,0,0,1024,1024,1024,1024,183.5,-2.4,44,3.774,3.78,3.779,3.786,0,0,1.461,134.51,7362.954042,10.498688,6,P-GPS,,2
523700,10/10/2019 19:06,19.28343689,-99.13872479,11.154856,,,7363.61021,0,1.937441007,11,0,14.586,7363.61021,11.154856,0.894776,1.937441007,0,0,-2.460634,182.8,-3.3,0.1,0,0,1024,1024,1024,1024,183.5,-2.4,44,3.642,3.602,3.63,3.669,0,0,15.568,134.51,7363.61021,11.154856,6,P-GPS,,2
524000,10/10/2019 19:06,19.28343667,-99.13872479,11.811024,,,7364.266378,0,1.856453471,11,0,14.586,7364.266378,11.811024,0.894776,1.937441007,0,0,-0.894776,183.5,-2.8,0,0,0,1024,1024,1403,1024,183.5,-2.4,44,3.642,3.602,3.63,3.669,0,0,15.568,134.51,7364.266378,11.811024,6,P-GPS,,2
524100,10/10/2019 19:06,19.28343658,-99.13872478,11.811024,,,7364.266378,0,1.825685754,11,0,14.586,7364.266378,11.811024,0.894776,1.937441007,0,0,-0.447388,183.6,-2.3,-0.2,0,0,1024,1024,1684,1024,183.5,-2.4,44,3.642,3.602,3.63,3.669,0,0,15.568,134.51,7364.266378,11.811024,6,P-GPS,,2
524200,10/10/2019 19:06,19.28343661,-99.13872465,11.811024,,,7364.266378,0,1.842860951,11,0,14.586,7364.266378,11.811024,0.894776,1.937441007,0,0,-0.671082,183.5,-1.6,-0.6,0,0,1024,1024,1684,1024,183.5,-2.4,44,3.642,3.602,3.63,3.669,0,0,15.568,134.51,7364.266378,11.811024,6,P-GPS,,2
524300,10/10/2019 19:06,19.2834366,-99.13872471,12.139108,,,7364.594462,0.223694,1.836069613,11,0,14.586,7364.594462,12.139108,0.894776,1.937441007,0,0.223694,-1.565858,183.2,-0.6,-0.8,0,0,1024,1024,1684,1024,183.5,-2.4,44,3.642,3.602,3.63,3.669,0,0,15.568,134.51,7364.594462,12.139108,6,P-GPS,,2
524400,10/10/2019 19:06,19.28343655,-99.13872464,12.467192,,,7364.922546,0,1.82223431,11,0,14.586,7364.922546,12.467192,0.894776,1.937441007,0,0,-2.460634,182.9,0,-0.3,0,0,1024,1024,1061,1024,183.5,-2.4,44,3.642,3.602,3.63,3.669,0,0,15.568,134.51,7364.922546,12.467192,6,P-GPS,,2
524700,10/10/2019 19:06,19.28343656,-99.13872467,14.107612,,,7366.562966,0,1.825311738,11,0,14.586,7366.562966,14.107612,0.894776,1.937441007,0,0,-4.250186,183.1,-1.6,0,0,0,1024,1024,1024,1024,183.5,-2.4,44,3.642,3.602,3.63,3.669,0,0,15.568,134.51,7366.562966,14.107612,6,P-GPS,,2
524800,10/10/2019 19:06,19.28343653,-99.13872426,14.76378,,,7367.219134,0.223694,1.844084705,11,0,14.586,7367.219134,14.76378,0.894776,1.937441007,-0.223694,0,-3.802798,183.7,-2.5,-0.2,0,0,1024,1024,1024,1024,183.5,-2.4,44,3.642,3.602,3.63,3.669,0,0,15.568,134.51,7367.219134,14.76378,6,P-GPS,,2
524900,10/10/2019 19:06,19.28343648,-99.13872448,15.419948,,,7367.875302,0.223694,1.806666724,11,0,14.586,7367.875302,15.419948,0.894776,1.937441007,-0.223694,0,-2.908022,184.3,-3.1,0.1,0,0,1024,1024,1024,1024,183.5,-2.4,44,3.642,3.602,3.63,3.669,0,0,15.568,134.51,7367.875302,15.419948,6,P-GPS,,2
525000,10/10/2019 19:06,19.28343635,-99.1387242,15.748032,,,7368.203386,0.223694,1.786131947,11,0,14.586,7368.203386,15.748032,0.894776,1.937441007,-0.223694,0,-2.23694,184.8,-3.6,0.6,0,0,1024,1024,1024,1101,183.5,-2.4,44,3.642,3.602,3.63,3.669,0,0,15.568,134.51,7368.203386,15.748032,6,P-GPS,,2
525100,10/10/2019 19:06,19.28343617,-99.13872412,16.076116,,,7368.53147,0.447388,1.728399005,11,0,14.596,7368.53147,16.076116,0.894776,1.937441007,-0.447388,0,-1.565858,185.3,-3.5,1.3,0,0,1024,1024,1024,1491,184.8,-2.4,44,3.634,3.648,3.653,3.661,0,0,15.943,134.51,7368.53147,16.076116,6,P-GPS,,2
525200,10/10/2019 19:06,19.28343601,-99.13872395,16.076116,,,7368.53147,0.447388,1.691328794,11,0,14.596,7368.53147,16.076116,0.894776,1.937441007,-0.447388,0,-1.565858,187.6,-2.8,1.8,0,0,1024,1024,1024,1424,187.6,-2.4,44,3.634,3.648,3.653,3.661,0,0,15.943,134.51,7368.53147,16.076116,6,P-GPS,,2
525400,10/10/2019 19:06,19.28343565,-99.13872394,16.4042,,,7368.859554,0.447388,1.570849788,11,0,14.596,7368.859554,16.4042,0.894776,1.937441007,-0.447388,0,-0.894776,200.4,-1.2,1.6,0,0,1024,1024,1024,1069,191,-2.4,44,3.634,3.648,3.653,3.661,0,0,15.943,134.51,7368.859554,16.4042,6,P-GPS,,2
525500,10/10/2019 19:06,19.28343542,-99.13872409,16.4042,,,7368.859554,0.7158208,1.473205428,11,0,14.596,7368.859554,16.4042,0.894776,1.937441007,-0.671082,-0.223694,-0.671082,205.2,-0.9,0.7,0,0,1024,1024,1024,1024,194.9,-2.4,44,3.634,3.648,3.653,3.661,0,0,15.943,134.51,7368.859554,16.4042,6,P-GPS,,2
525500,10/10/2019 19:06,19.28343542,-99.13872409,16.4042,,,7368.859554,0.7158208,1.473205428,11,0,14.596,7368.859554,16.4042,0.894776,1.937441007,-0.671082,-0.223694,-0.671082,205.2,-0.9,0.7,0,0,1024,1024,1024,1024,199.9,-2.4,44,3.634,3.648,3.653,3.661,0,0,15.943,134.51,7368.859554,16.4042,6,P-GPS,,2
525700,10/10/2019 19:06,19.28343519,-99.13872403,16.732284,,,7369.187638,0.4921268,1.402217893,11,0,14.596,7369.187638,16.732284,0.894776,1.937441007,-0.447388,-0.223694,-0.671082,208.4,-0.3,0.2,0,0,1024,1024,1024,1482,199.9,-2.4,44,3.634,3.648,3.653,3.661,0,0,15.943,134.51,7369.187638,16.732284,6,P-GPS,,2
525700,10/10/2019 19:06,19.28343519,-99.13872403,16.732284,,,7369.187638,0.4921268,1.402217893,11,0,14.596,7369.187638,16.732284,0.894776,1.937441007,-0.447388,-0.223694,-0.671082,208.4,-0.3,0.2,0,0,1024,1024,1024,1496,206.2,-2.4,44,3.634,3.648,3.653,3.661,0,0,15.943,134.51,7369.187638,16.732284,6,P-GPS,,2
525800,10/10/2019 19:06,19.28343537,-99.13872379,16.732284,,,7369.187638,0.447388,1.494589943,11,0,14.596,7369.187638,16.732284,0.894776,1.937441007,-0.447388,0,-0.223694,211.2,-0.3,0.1,0,0,1024,1024,1024,1684,209.8,-2.4,44,3.634,3.648,3.653,3.661,0,0,15.943,134.51,7369.187638,16.732284,6,P-GPS,,2
526000,10/10/2019 19:06,19.28343473,-99.13872409,16.732284,,,7369.187638,0.4921268,1.241292691,12,0,14.596,7369.187638,16.732284,0.894776,1.937441007,-0.447388,-0.223694,0,228.5,0,-0.5,0,0,1024,1024,1024,1684,214.9,-2.4,44,3.634,3.648,3.653,3.661,0,0,15.943,134.51,7369.187638,16.732284,6,P-GPS,,2
526100,10/10/2019 19:06,19.28343465,-99.13872417,16.732284,,,7369.187638,0.4921268,1.204868805,12,0,14.596,7369.187638,16.732284,0.894776,1.937441007,-0.447388,-0.223694,0,240.5,0.6,-0.9,0,0,1024,1024,1024,1684,222.5,-2.5,44,3.634,3.648,3.653,3.661,0,0,15.943,134.51,7369.187638,16.732284,6,P-GPS,,2
526100,10/10/2019 19:06,19.28343465,-99.13872417,16.732284,,,7369.187638,0.447388,1.204868805,12,0,14.426,7369.187638,16.732284,0.894776,1.937441007,-0.447388,-0.223694,0,240.5,0.6,-0.9,0,0,1024,1024,1024,1548,233.1,-2.5,44,3.595,3.613,3.606,3.611,0,0,17.972,134.51,7369.187638,16.732284,6,P-GPS,,2
526300,10/10/2019 19:06,19.28343409,-99.13872416,16.4042,,,7368.859554,0.447388,1.020830085,12,0,14.426,7369.187638,16.732284,0.894776,1.937441007,-0.447388,0,0,265.1,1.5,0,0,0,1024,1024,1024,1024,257.3,-2.5,44,3.595,3.613,3.606,3.611,0,0,17.972,134.51,7368.859554,16.4042,6,P-GPS,,2
526500,10/10/2019 19:06,19.28343351,-99.13872454,16.076116,,,7368.53147,0.447388,0.773618791,12,0,14.426,7369.187638,16.732284,0.894776,1.937441007,-0.447388,0,0.223694,281.7,0.9,1.2,0,0,1024,1024,1024,1024,267.9,-2.5,44,3.595,3.613,3.606,3.611,0,0,17.972,134.51,7368.53147,16.076116,6,P-GPS,,2
526600,10/10/2019 19:06,19.28343299,-99.13872465,16.076116,,,7368.53147,0.4921268,0.589708024,11,0,14.426,7369.187638,16.732284,0.894776,1.937441007,-0.447388,-0.223694,0,284.7,0.5,1.8,0,0,1024,1024,1024,1024,276.2,-2.4,44,3.595,3.613,3.606,3.611,0,0,17.972,134.51,7368.53147,16.076116,6,P-GPS,,2
526700,10/10/2019 19:06,19.28343269,-99.13872491,15.748032,,,7368.203386,0.4921268,0.448559726,11,0,14.426,7369.187638,16.732284,0.894776,1.937441007,-0.447388,-0.223694,0,286.5,0.4,2.5,0,0,1024,1024,1024,1024,280.9,-2.4,44,3.595,3.613,3.606,3.611,0,0,17.972,134.51,7368.203386,15.748032,6,P-GPS,,2
526800,10/10/2019 19:06,19.28343229,-99.13872506,15.748032,,,7368.203386,0.4921268,0.300205062,12,0,14.426,7369.187638,16.732284,0.894776,1.937441007,-0.447388,-0.223694,0,287.6,0.4,2.6,0,0,1024,1024,1024,1024,283.5,-2.4,44,3.595,3.613,3.606,3.611,0,0,17.972,134.51,7368.203386,15.748032,6,P-GPS,,2
526900,10/10/2019 19:06,19.28343211,-99.13872518,15.748032,,,7368.203386,0.3131716,0.222522645,12,0,14.426,7369.187638,16.732284,0.894776,1.937441007,-0.223694,-0.223694,-0.223694,288.3,0.5,3,0,0,1024,1024,1024,1024,285.2,-2.4,44,3.595,3.613,3.606,3.611,0,0,17.972,134.51,7368.203386,15.748032,6,P-GPS,,2
527000,10/10/2019 19:06,19.283432,-99.13872521,15.748032,,,7368.203386,0.223694,0.186862867,11,0,14.426,7369.187638,16.732284,0.894776,1.937441007,-0.223694,0,-0.223694,288.9,0.7,3.3,0,0,1024,1024,1024,1024,286.2,-2.4,44,3.595,3.613,3.606,3.611,0,0,17.972,134.51,7368.203386,15.748032,6,P-GPS,,2
527100,10/10/2019 19:06,19.28343191,-99.13872528,15.748032,,,7368.203386,0,0.145133863,11,0,14.426,7369.187638,16.732284,0.894776,1.937441007,0,0,0,289.2,0.9,3.1,0,0,1024,1024,1024,1024,287,-2.4,44,3.595,3.613,3.606,3.611,0,0,17.972,134.51,7368.203386,15.748032,6,P-GPS,,2
527200,10/10/2019 19:06,19.28343168,-99.13872538,15.748032,,,7368.203386,0,0.072719819,11,0,14.426,7369.187638,16.732284,0.894776,1.937441007,0,0,0,289.5,0.9,2.9,0,0,1024,1024,1110,1024,287.6,-2.4,44,3.595,3.613,3.606,3.611,0,0,17.972,134.51,7368.203386,15.748032,6,P-GPS,,2
527300,10/10/2019 19:06,19.28343162,-99.13872543,15.748032,,,7368.203386,0,0.056179792,11,0,14.591,7369.187638,16.732284,0.894776,1.937441007,0,0,-0.223694,289.8,0.8,2.8,0,0,1024,1024,1111,1024,288,-2.4,44,3.635,3.65,3.65,3.646,0,0,11.873,134.51,7368.203386,15.748032,6,P-GPS,,2
527400,10/10/2019 19:06,19.28343134,-99.1387256,15.748032,,,7368.203386,0,0.107402234,11,0,14.591,7369.187638,16.732284,0.894776,1.937441007,0,0,-0.223694,290.2,0.6,2.7,0,0,1024,1024,1024,1024,288,-2.4,44,3.635,3.65,3.65,3.646,0,0,11.873,134.51,7368.203386,15.748032,6,P-GPS,,2
527500,10/10/2019 19:06,19.28343131,-99.13872565,15.748032,,,7368.203386,0,0.120089571,11,0,14.591,7369.187638,16.732284,0.894776,1.937441007,0,0,0,290.8,0.5,2.9,0,0,1024,1024,1024,1024,288.7,-2.4,44,3.635,3.65,3.65,3.646,0,0,11.873,134.51,7368.203386,15.748032,6,P-GPS,,2
527600,10/10/2019 19:06,19.28343146,-99.13872559,15.748032,,,7368.203386,0,0.062545934,11,0,14.591,7369.187638,16.732284,0.894776,1.937441007,0,0,0,291.4,0.6,3,0,0,1024,1024,1024,1024,289.1,-2.4,44,3.635,3.65,3.65,3.646,0,0,11.873,134.51,7368.203386,15.748032,6,P-GPS,,2
527700,10/10/2019 19:06,19.28343137,-99.13872575,15.748032,,,7368.203386,0,0.110722116,11,0,14.591,7369.187638,16.732284,0.894776,1.937441007,0,0,-0.223694,291.9,0.7,2.5,0,0,1024,1024,1024,1024,289.5,-2.4,44,3.635,3.65,3.65,3.646,0,0,11.873,134.51,7368.203386,15.748032,6,P-GPS,,2
527800,10/10/2019 19:06,19.2834315,-99.13872568,16.076116,,,7368.53147,0.223694,0.059794949,11,0,14.591,7369.187638,16.732284,0.894776,1.937441007,0.223694,0,-0.447388,292.3,0.8,1.8,0,0,1024,1024,1024,1024,290,-2.4,44,3.635,3.65,3.65,3.646,0,0,11.873,134.51,7368.53147,16.076116,6,P-GPS,,2
527900,10/10/2019 19:06,19.28343161,-99.13872561,15.748032,,,7368.203386,0.223694,0.013493373,11,0,14.591,7369.187638,16.732284,0.894776,1.937441007,0.223694,0,0.223694,292.8,0.8,1.3,0,0,1024,1024,1024,1024,290.4,-2.4,44,3.635,3.65,3.65,3.646,0,0,11.873,134.51,7368.203386,15.748032,6,P-GPS,,2
528000,10/10/2019 19:06,19.28343178,-99.1387255,15.748032,,,7368.203386,0.223694,0.058812994,11,0,14.591,7369.187638,16.732284,0.894776,1.937441007,0.223694,0,0,293.1,0.9,0.9,0,0,1024,1024,1024,1024,290.8,-2.4,44,3.635,3.65,3.65,3.646,0,0,11.873,134.51,7368.203386,15.748032,6,P-GPS,,2
528100,10/10/2019 19:06,19.28343184,-99.13872546,15.748032,,,7368.203386,0.223694,0.084957352,11,0,14.591,7369.187638,16.732284,0.894776,1.937441007,0.223694,0,0,293.5,1,0.6,0,0,1024,1024,1024,1024,291.2,-2.4,44,3.635,3.65,3.65,3.646,0,0,11.873,134.51,7368.203386,15.748032,6,P-GPS,,2
528200,10/10/2019 19:06,19.28343229,-99.13872502,15.748032,,,7368.203386,0.223694,0.306745417,12,0,14.591,7369.187638,16.732284,0.894776,1.937441007,0.223694,0,0,293.9,0.8,0.3,0,0,1024,1024,1024,1024,291.6,-2.4,44,3.635,3.65,3.65,3.646,0,0,11.873,134.51,7368.203386,15.748032,6,P-GPS,,2
528300,10/10/2019 19:06,19.2834323,-99.13872505,15.419948,,,7367.875302,0.223694,0.304956047,12,0,14.463,7369.187638,16.732284,0.894776,1.937441007,0.223694,0,0,294.2,0.7,-0.3,0,0,1024,1024,1024,1024,291.9,-2.4,44,3.603,3.623,3.623,3.626,0,0,15.649,134.51,7367.875302,15.419948,6,P-GPS,,2
528400,10/10/2019 19:06,19.28343268,-99.13872495,15.419948,,,7367.875302,0.223694,0.438572849,11,0,14.463,7369.187638,16.732284,0.894776,1.937441007,0.223694,0,0,294.4,0.6,-0.6,0,0,1024,1024,1024,1024,292.2,-2.4,44,3.603,3.623,3.623,3.626,0,0,15.649,134.51,7367.875302,15.419948,6,P-GPS,,2
528500,10/10/2019 19:06,19.28343278,-99.13872495,15.748032,,,7368.203386,0.223694,0.472650934,11,0,14.463,7369.187638,16.732284,0.894776,1.937441007,0.223694,0,-0.223694,294.6,0.7,-0.9,0,0,1024,1024,1224,1024,292.5,-2.4,44,3.603,3.623,3.623,3.626,0,0,15.649,134.51,7368.203386,15.748032,6,P-GPS,,2
528600,10/10/2019 19:06,19.28343274,-99.13872505,15.748032,,,7368.203386,0,0.44326445,11,0,14.463,7369.187638,16.732284,0.894776,1.937441007,0,0,0,294.7,0.8,-1.2,0,0,1024,1024,1442,993,292.8,-2.4,44,3.603,3.623,3.623,3.626,0,0,15.649,134.51,7368.203386,15.748032,6,P-GPS,,2
528700,10/10/2019 19:06,19.28343279,-99.13872508,15.748032,,,7368.203386,0,0.457782167,11,0,14.463,7369.187638,16.732284,0.894776,1.937441007,0,0,-0.671082,294.8,1.1,-1.3,0,0,1024,1024,1632,949,293,-2.4,44,3.603,3.623,3.623,3.626,0,0,15.649,134.51,7368.203386,15.748032,6,P-GPS,,2
528800,10/10/2019 19:06,19.28343283,-99.1387251,15.748032,,,7368.203386,0,0.467221144,11,0,14.463,7369.187638,16.732284,0.894776,1.937441007,0,0,-1.565858,295.3,1.7,-0.8,0,0,1024,1024,1639,962,292.9,-2.4,44,3.603,3.623,3.623,3.626,0,0,15.649,134.51,7368.203386,15.748032,6,P-GPS,,2
528900,10/10/2019 19:06,19.28343283,-99.13872515,16.076116,,,7368.53147,0,0.45962928,11,0,14.463,7369.187638,16.732284,0.894776,1.937441007,0,0,-2.460634,296,2.4,-0.5,0,0,1024,1024,1603,983,292.9,-2.4,44,3.603,3.623,3.623,3.626,0,0,15.649,134.51,7368.53147,16.076116,6,P-GPS,,2
529000,10/10/2019 19:06,19.28343293,-99.13872504,16.732284,,,7369.187638,0,0.510305134,11,0,14.463,7369.187638,16.732284,0.894776,1.937441007,0,0,-3.579104,296.8,2.9,0.2,0,0,1024,1024,1608,1004,293,-2.4,44,3.603,3.623,3.623,3.626,0,0,15.649,134.51,7369.187638,16.732284,6,P-GPS,,2
529100,10/10/2019 19:06,19.28343286,-99.13872497,17.060368,,,7369.515722,0,0.49364831,11,0,14.463,7369.515722,17.060368,0.894776,1.937441007,0,0,-4.47388,297.5,2.6,0.8,0,0,1024,1024,1564,1024,293.4,-2.4,44,3.603,3.623,3.623,3.626,0,0,15.649,134.51,7369.515722,17.060368,6,P-GPS,,2
529200,10/10/2019 19:06,19.28343304,-99.13872481,18.04462,,,7370.499974,0.223694,0.578274297,11,0,14.463,7370.499974,18.04462,0.894776,1.937441007,0,0.223694,-5.59235,298.2,1.7,1.4,0,0,1024,1024,1541,1024,293.8,-2.4,44,3.603,3.623,3.623,3.626,0,0,15.649,134.51,7370.499974,18.04462,6,P-GPS,,2
529300,10/10/2019 19:06,19.28343306,-99.13872468,19.028872,,,7371.484226,0.223694,0.605961305,11,0,14.478,7371.484226,19.028872,0.894776,1.937441007,0,0.223694,-6.263432,299.1,1,1.8,0,0,1024,1024,1491,1024,294.3,-2.4,44,3.597,3.62,3.62,3.61,0,0,14.521,134.51,7371.484226,19.028872,6,P-GPS,,2
529400,10/10/2019 19:06,19.28343313,-99.13872439,19.68504,,,7372.140394,0.223694,0.685078762,11,0,14.478,7372.140394,19.68504,0.894776,1.937441007,0,0.223694,-6.263432,300.1,0,1.9,0,0,1024,1024,1464,1024,294.7,-2.4,44,3.597,3.62,3.62,3.61,0,0,14.521,134.51,7372.140394,19.68504,6,P-GPS,,2
529500,10/10/2019 19:06,19.2834332,-99.13872432,20.669292,,,7373.124646,0.3131716,0.718526926,11,0,14.478,7373.124646,20.669292,0.894776,1.937441007,0.223694,0.223694,-5.816044,301.1,-0.7,1.1,0,0,1024,1024,1340,1024,295.2,-2.4,44,3.597,3.62,3.62,3.61,0,0,14.521,134.51,7373.124646,20.669292,6,P-GPS,,2
529600,10/10/2019 19:06,19.28343328,-99.13872409,21.32546,,,7373.780814,0,0.792060393,11,0,14.478,7373.780814,21.32546,0.894776,1.937441007,0,0,-5.59235,301.9,-0.9,-0.3,0,0,1024,1024,1213,1024,295.8,-2.4,44,3.597,3.62,3.62,3.61,0,0,14.521,134.51,7373.780814,21.32546,6,P-GPS,,2
529700,10/10/2019 19:06,19.28343338,-99.1387241,21.981628,,,7374.436982,0,0.817956063,11,0,14.478,7374.436982,21.981628,0.894776,1.937441007,0,0,-5.144962,302.4,-0.5,-1.2,0,0,1024,1024,1123,1024,296.5,-2.4,44,3.597,3.62,3.62,3.61,0,0,14.521,134.51,7374.436982,21.981628,6,P-GPS,,2
529800,10/10/2019 19:06,19.28343329,-99.13872427,22.637796,,,7375.09315,0,0.754665378,11,0,14.478,7375.09315,22.637796,0.894776,1.937441007,0,0,-4.250186,302.5,-0.1,-1.6,0,0,1024,1024,1066,1024,297.2,-2.4,44,3.597,3.62,3.62,3.61,0,0,14.521,134.51,7375.09315,22.637796,6,P-GPS,,2
529900,10/10/2019 19:06,19.28343329,-99.13872433,23.293964,,,7375.749318,0,0.743963278,11,0,14.478,7375.749318,23.293964,0.894776,1.937441007,0,0,-3.802798,302.4,0,-1.4,0,0,1024,1024,1024,1024,297.8,-2.4,44,3.597,3.62,3.62,3.61,0,0,14.521,134.51,7375.749318,23.293964,6,P-GPS,,2
529900,10/10/2019 19:06,19.28343329,-99.13872433,23.293964,,,7375.749318,0,0.743963278,11,0,14.478,7375.749318,23.293964,0.894776,1.937441007,0,0,-3.802798,302.4,0,-1.4,0,0,1024,1024,1024,1024,298.3,-2.4,44,3.597,3.62,3.62,3.61,0,0,14.521,134.51,7375.749318,23.293964,6,P-GPS,,2
530100,10/10/2019 19:06,19.28343314,-99.13872429,23.950132,,,7376.405486,0,0.708454747,11,0,14.478,7376.405486,23.950132,0.894776,1.937441007,0,0,-2.013246,302.2,0,-0.6,0,0,1024,1024,1024,1024,298.7,-2.4,44,3.597,3.62,3.62,3.61,0,0,14.521,134.51,7376.405486,23.950132,6,P-GPS,,2
530200,10/10/2019 19:06,19.28343334,-99.13872431,23.950132,,,7376.405486,0,0.761125352,11,0,14.478,7376.405486,23.950132,0.894776,1.937441007,0,0,-1.565858,302.1,0,-0.3,0,0,1024,1024,1029,1024,298.9,-2.4,44,3.597,3.62,3.62,3.61,0,0,14.521,134.51,7376.405486,23.950132,6,P-GPS,,2
530300,10/10/2019 19:06,19.28343332,-99.13872431,24.278216,,,7376.73357,0,0.756509211,11,0,14.324,7376.73357,24.278216,0.894776,1.937441007,0,0,-1.342164,302.1,0.4,-0.3,0,0,1024,1024,1059,1024,299.2,-2.4,44,3.596,3.545,3.534,3.529,0,0,17.389,134.51,7376.73357,24.278216,6,P-GPS,,2
530400,10/10/2019 19:06,19.28343381,-99.13872412,24.278216,,,7376.73357,0,0.940485594,12,0,14.324,7376.73357,24.278216,0.894776,1.937441007,0,0,-0.894776,302.2,0.9,0,0,0,1024,1024,1535,876,299.4,-2.4,44,3.596,3.545,3.534,3.529,0,0,17.389,134.51,7376.73357,24.278216,6,P-GPS,,2
530500,10/10/2019 19:06,19.28343394,-99.13872408,24.278216,,,7376.73357,0,0.987280215,12,0,14.324,7376.73357,24.278216,0.894776,1.937441007,0,0,-0.894776,302,1.5,-0.6,0,0,1024,1024,1676,862,299.4,-2.4,44,3.596,3.545,3.534,3.529,0,0,17.389,134.51,7376.73357,24.278216,6,P-GPS,,2
530600,10/10/2019 19:06,19.28343399,-99.13872403,24.6063,,,7377.061654,0,1.013093864,11,0,14.324,7377.061654,24.6063,0.894776,1.937441007,0,0,-1.342164,300.7,1.4,-1.8,0,0,1024,1024,1684,916,299,-2.4,44,3.596,3.545,3.534,3.529,0,0,17.389,134.51,7377.061654,24.6063,6,P-GPS,,2
530700,10/10/2019 19:06,19.28343404,-99.13872397,24.934384,,,7377.389738,0,1.039839272,11,0,14.324,7377.389738,24.934384,0.894776,1.937441007,0,0,-2.013246,299.5,1.9,-2.1,0,0,1024,1024,1684,917,298.6,-2.4,44,3.596,3.545,3.534,3.529,0,0,17.389,134.51,7377.389738,24.934384,6,P-GPS,,2
530800,10/10/2019 19:06,19.28343432,-99.13872396,25.262468,,,7377.717822,0,1.129091243,12,0,14.324,7377.717822,25.262468,0.894776,1.937441007,0,0,-3.131716,298.5,2.2,-2.1,0,0,1024,1024,1682,915,298.2,-2.4,44,3.596,3.545,3.534,3.529,0,0,17.389,134.51,7377.717822,25.262468,6,P-GPS,,2
530900,10/10/2019 19:06,19.28343427,-99.13872387,25.918636,,,7378.37399,0.223694,1.127634551,12,0,14.324,7378.37399,25.918636,0.894776,1.937441007,0,0.223694,-4.47388,297.7,1.9,-1.9,0,0,1024,1024,1642,949,297.7,-2.4,44,3.596,3.545,3.534,3.529,0,0,17.389,134.51,7378.37399,25.918636,6,P-GPS,,2
531000,10/10/2019 19:06,19.28343401,-99.13872373,26.574804,,,7379.030158,0.3131716,1.076984943,12,0,14.324,7379.030158,26.574804,0.894776,1.937441007,-0.223694,0.223694,-5.368656,297.2,1.3,-1.5,0,0,1024,1024,1663,933,297.3,-2.4,44,3.596,3.545,3.534,3.529,0,0,17.389,134.51,7379.030158,26.574804,6,P-GPS,,2
531100,10/10/2019 19:06,19.283434,-99.13872375,27.559056,,,7380.01441,0.3131716,1.069219194,12,0,14.324,7380.01441,27.559056,0.894776,1.937441007,-0.223694,0.223694,-6.487126,296.9,0.8,-1.1,0,0,1024,1024,1630,963,296.9,-2.4,44,3.596,3.545,3.534,3.529,0,0,17.389,134.51,7380.01441,27.559056,6,P-GPS,,2
531200,10/10/2019 19:06,19.28343393,-99.13872363,28.543308,,,7380.998662,0.223694,1.076266439,12,0,14.324,7380.998662,28.543308,0.894776,1.937441007,-0.223694,0,-6.934514,296.6,0.3,-1.1,0,0,1024,1024,1647,998,296.6,-2.4,44,3.596,3.545,3.534,3.529,0,0,17.389,134.51,7380.998662,28.543308,6,P-GPS,,2
531300,10/10/2019 19:06,19.28343379,-99.13872356,29.52756,,,7381.982914,0.223694,1.05018048,12,0,14.403,7381.982914,29.52756,0.894776,1.937441007,-0.223694,0,-7.605596,296.2,0,-1.2,0,0,1024,1024,1676,981,296.5,-2.4,44,3.574,3.634,3.633,3.637,0,0,19.733,134.51,7381.982914,29.52756,6,P-GPS,,2
531400,10/10/2019 19:06,19.28343342,-99.13872365,30.839896,,,7383.29525,0.447388,0.932263809,12,0,14.403,7383.29525,30.839896,0.894776,1.937441007,-0.447388,0,-8.052984,295.5,-0.3,-1.2,0,0,1024,1024,1684,1018,296.5,-2.4,44,3.574,3.634,3.633,3.637,0,0,19.733,134.51,7383.29525,30.839896,6,P-GPS,,2
531500,10/10/2019 19:06,19.28343316,-99.13872364,31.824148,,,7384.279502,0.447388,0.871240185,12,0,14.403,7384.279502,31.824148,0.894776,1.937441007,-0.447388,0,-8.276678,294.6,-1.2,-0.3,0,0,1024,1024,1540,1024,296.4,-2.4,44,3.574,3.634,3.633,3.637,0,0,19.733,134.51,7384.279502,31.824148,6,P-GPS,,2
531700,10/10/2019 19:06,19.28343252,-99.13872379,34.120736,,,7386.57609,0.447388,0.696850416,13,0,14.403,7386.57609,34.120736,0.894776,1.937441007,-0.447388,0,-8.276678,292.4,-1.1,2,0,0,1024,1024,1024,1024,296.3,-2.4,44,3.574,3.634,3.633,3.637,0,0,19.733,134.51,7386.57609,34.120736,6,P-GPS,,2
531800,10/10/2019 19:06,19.28343243,-99.13872379,35.433072,,,7387.888426,0.447388,0.684488211,12,0,14.403,7387.888426,35.433072,0.894776,1.937441007,-0.447388,0,-8.052984,291.8,-1.1,2.3,0,0,1024,1024,1024,1024,296.1,-2.4,44,3.574,3.634,3.633,3.637,0,0,19.733,134.51,7387.888426,35.433072,6,P-GPS,,2
531900,10/10/2019 19:06,19.28343223,-99.13872386,36.417324,,,7388.872678,0.223694,0.632801858,12,0,14.403,7388.872678,36.417324,0.894776,1.937441007,-0.223694,0,-7.381902,291.4,-1.5,2.5,0,0,1024,1024,1024,1024,295.9,-2.4,44,3.574,3.634,3.633,3.637,0,0,19.733,134.51,7388.872678,36.417324,6,P-GPS,,2
532000,10/10/2019 19:06,19.28343212,-99.13872393,37.401576,,,7389.85693,0.223694,0.596620754,12,0,14.403,7389.85693,37.401576,0.894776,1.937441007,-0.223694,0,-6.487126,291,-1.6,2.4,0,0,1024,1024,1024,1024,295.6,-2.4,44,3.574,3.634,3.633,3.637,0,0,19.733,134.51,7389.85693,37.401576,6,P-GPS,,2
532100,10/10/2019 19:06,19.28343196,-99.13872403,38.057744,,,7390.513098,0.3131716,0.550265766,12,0,14.403,7390.513098,38.057744,0.894776,1.937441007,-0.223694,-0.223694,-5.816044,290.5,-2,2.3,0,0,1194,1024,1024,1024,295.3,-2.4,44,3.574,3.634,3.633,3.637,0,0,19.733,134.51,7390.513098,38.057744,6,P-GPS,,2
532200,10/10/2019 19:06,19.28343219,-99.1387242,39.041996,,,7391.49735,0.3131716,0.518523639,12,0,14.403,7391.49735,39.041996,0.894776,1.937441007,-0.223694,-0.223694,-5.144962,289.8,-2.7,1.8,0,0,1522,1024,1024,1024,295,-2.4,44,3.574,3.634,3.633,3.637,0,0,19.733,134.51,7391.49735,39.041996,6,P-GPS,,2
532300,10/10/2019 19:06,19.28343198,-99.13872443,39.698164,,,7392.153518,0.447388,0.418185709,12,0,14.403,7392.153518,39.698164,0.894776,1.937441007,0,-0.447388,-4.697574,289,-12.2,0.5,0,0,1678,1063,1024,1024,294.3,-2.4,44,3.574,3.634,3.633,3.637,0,0,19.733,134.51,7392.153518,39.698164,6,P-GPS,,2
532400,10/10/2019 19:06,19.28343216,-99.1387246,40.026248,,,7392.481602,1.5882274,0.389632558,12,0,14.328,7392.481602,40.026248,1.5882274,1.937441007,0,-0.894776,-3.802798,288.1,-23.9,-0.3,0,0,1684,1176,1024,1024,294.3,-2.4,44,3.522,3.547,3.542,3.535,0,0,15.763,134.51,7392.481602,40.026248,6,P-GPS,,2
532600,10/10/2019 19:06,19.28343255,-99.13872605,40.682416,,,7393.13777,2.2816788,0.369806442,13,0,14.328,7393.13777,40.682416,2.2816788,1.937441007,0.447388,-2.23694,-2.23694,286,-28.5,2.6,0,0,1684,1110,1024,1024,293.2,-2.4,44,3.522,3.547,3.542,3.535,0,0,15.763,134.51,7393.13777,40.682416,6,P-GPS,,2
532700,10/10/2019 19:06,19.28343281,-99.13872725,41.0105,,,7393.465854,3.1988242,0.714494774,13,0,14.328,7393.465854,41.0105,3.1988242,1.937441007,0.671082,-3.131716,-2.013246,285.4,-28,3.3,0,0,1684,1078,1024,1024,292.6,-2.4,44,3.522,3.547,3.542,3.535,0,0,15.763,134.51,7393.465854,41.0105,6,P-GPS,,2
532800,10/10/2019 19:06,19.2834334,-99.13872919,41.338584,,,7393.793938,3.9593838,1.399379966,13,0,14.328,7393.793938,41.338584,3.9593838,1.937441007,1.11847,-3.802798,-1.565858,285.4,-27.6,1.9,0,0,1536,1021,1024,1024,292.2,-2.4,44,3.522,3.547,3.542,3.535,0,0,15.763,134.51,7393.793938,41.338584,6,P-GPS,,2
533000,10/10/2019 19:06,19.28343484,-99.13873326,41.338584,,,7393.793938,5.3239172,2.889173321,13,0,14.328,7393.793938,41.338584,5.3239172,2.889173321,1.342164,-5.144962,-0.894776,285.3,-16.8,-1.1,0,0,1153,1024,1024,1024,291.7,-2.4,44,3.522,3.547,3.542,3.535,0,0,15.763,134.51,7393.793938,41.338584,6,P-GPS,,2
533100,10/10/2019 19:06,19.28343546,-99.13873555,41.666668,,,7394.122022,5.3239172,3.705216654,13,0,14.328,7394.122022,41.666668,5.3239172,3.705216654,1.342164,-5.144962,-0.671082,285,0.9,-1.4,0,0,1024,1024,1024,1024,290.7,-2.4,44,3.522,3.547,3.542,3.535,0,0,15.763,134.51,7394.122022,41.666668,6,P-GPS,,2
533200,10/10/2019 19:06,19.28343605,-99.13873792,41.666668,,,7394.122022,4.8317904,4.542716681,13,0,14.328,7394.122022,41.666668,5.3239172,4.542716681,1.11847,-4.697574,-0.447388,285.5,8.8,-1,0,0,1024,1024,1024,1024,290.2,-2.4,44,3.522,3.547,3.542,3.535,0,0,15.763,134.51,7394.122022,41.666668,6,P-GPS,,2
533300,10/10/2019 19:06,19.28343653,-99.13873993,41.666668,,,7394.122022,4.3396636,5.25160778,13,0,14.328,7394.122022,41.666668,5.3239172,5.25160778,0.894776,-4.250186,-0.447388,286.1,10.7,-1.7,0,0,1024,1024,1024,1024,289.8,-2.4,44,3.522,3.547,3.542,3.535,0,0,15.763,134.51,7394.122022,41.666668,6,P-GPS,,2
533400,10/10/2019 19:06,19.28343693,-99.1387422,41.666668,,,7394.122022,3.914645,6.03920623,13,0,14.328,7394.122022,41.666668,5.3239172,6.03920623,0.894776,-3.802798,-0.447388,286.5,12.9,-1.6,0,0,1024,1024,1024,1254,289.6,-2.4,44,3.522,3.547,3.542,3.535,0,0,15.763,134.51,7394.122022,41.666668,6,P-GPS,,2
533500,10/10/2019 19:06,19.28343724,-99.1387438,41.666668,,,7394.122022,3.3777794,6.595669502,13,0,14.328,7394.122022,41.666668,5.3239172,6.595669502,0.447388,-3.35541,-0.223694,287.4,14.3,-0.7,0,0,1024,1024,1024,1304,289.8,-2.4,44,3.522,3.547,3.542,3.535,0,0,15.763,134.51,7394.122022,41.666668,6,P-GPS,,2
533600,10/10/2019 19:06,19.28343763,-99.13874514,41.666668,,,7394.122022,2.9527608,7.080151145,13,0,14.152,7394.122022,41.666668,5.3239172,7.080151145,0.447388,-2.908022,0,290.4,14.9,0.2,0,0,1024,1024,1024,1128,290.9,-2.4,44,3.57,3.598,3.596,3.599,0,0,22.521,134.51,7394.122022,41.666668,6,P-GPS,,2
533700,10/10/2019 19:06,19.28343782,-99.13874626,41.666668,,,7394.122022,2.23694,7.469324386,13,0,14.152,7394.122022,41.666668,5.3239172,7.469324386,0.223694,-2.23694,0,292.5,14.7,0.4,0,0,1024,1024,1024,1024,291.5,-2.4,44,3.57,3.598,3.596,3.599,0,0,22.521,134.51,7394.122022,41.666668,6,P-GPS,,2
533800,10/10/2019 19:06,19.2834379,-99.13874713,41.666668,,,7394.122022,2.0356154,7.76266429,13,0,14.152,7394.122022,41.666668,5.3239172,7.76266429,0.223694,-2.013246,0,293.3,13.5,0.9,0,0,1024,1024,1024,1024,291.5,-2.4,44,3.57,3.598,3.596,3.599,0,0,22.521,134.51,7394.122022,41.666668,6,P-GPS,,2
533900,10/10/2019 19:06,19.28343818,-99.13874817,41.666668,,,7394.122022,1.342164,8.134941205,13,0,14.152,7394.122022,41.666668,5.3239172,8.134941205,0,-1.342164,0,293.9,12.4,1.2,0,0,1024,1024,1024,1024,291.7,-2.4,44,3.57,3.598,3.596,3.599,0,0,22.521,134.51,7394.122022,41.666668,6,P-GPS,,2
534000,10/10/2019 19:06,19.28343802,-99.13874861,41.338584,,,7393.793938,1.11847,8.264337535,13,0,14.152,7394.122022,41.666668,5.3239172,8.264337535,0,-1.11847,0.223694,294.5,10.6,1.1,0,0,1024,1024,1024,1324,291.9,-2.4,44,3.57,3.598,3.596,3.599,0,0,22.521,134.51,7393.793938,41.338584,6,P-GPS,,2
534100,10/10/2019 19:06,19.28343799,-99.13874909,41.338584,,,7393.793938,0.894776,8.419619692,13,0,14.152,7394.122022,41.666668,5.3239172,8.419619692,0,-0.894776,0,295.8,8.5,1.1,0,0,1024,1024,1024,1328,292.7,-2.4,44,3.57,3.598,3.596,3.599,0,0,22.521,134.51,7393.793938,41.338584,6,P-GPS,,2
534200,10/10/2019 19:06,19.283438,-99.13874949,41.338584,,,7393.793938,0.671082,8.554691875,13,0,14.152,7394.122022,41.666668,5.3239172,8.554691875,0,-0.671082,0,299.9,6.5,1.1,0,0,1024,1024,1024,1024,292.7,-2.4,44,3.57,3.598,3.596,3.599,0,0,22.521,134.51,7393.793938,41.338584,6,P-GPS,,2
534300,10/10/2019 19:06,19.28343794,-99.1387498,41.0105,,,7393.465854,0.447388,8.647998964,13,0,14.152,7394.122022,41.666668,5.3239172,8.647998964,0,-0.447388,0.223694,302.4,4.5,0.5,0,0,1489,1024,1024,1024,298.1,-2.4,44,3.57,3.598,3.596,3.599,0,0,22.521,134.51,7393.465854,41.0105,6,P-GPS,,2
534400,10/10/2019 19:06,19.28343768,-99.13874952,41.0105,,,7393.465854,0.447388,8.532382163,13,0,14.152,7394.122022,41.666668,5.3239172,8.647998964,0,-0.447388,0.223694,303.7,-5.2,-0.1,0,0,1684,1215,1024,1024,298.1,-2.4,44,3.57,3.598,3.596,3.599,0,0,22.521,134.51,7393.465854,41.0105,6,P-GPS,,2
534500,10/10/2019 19:06,19.28343776,-99.13875001,41.0105,,,7393.465854,0.894776,8.703543586,13,0,14.152,7394.122022,41.666668,5.3239172,8.703543586,0,-0.894776,0,305,-20.2,-0.4,0,0,1684,1124,1024,1024,298.1,-2.4,44,3.57,3.598,3.596,3.599,0,0,22.521,134.51,7393.465854,41.0105,6,P-GPS,,2
534600,10/10/2019 19:06,19.28343779,-99.13875038,41.0105,,,7393.465854,1.8342908,8.82710002,13,0,14.152,7394.122022,41.666668,5.3239172,8.82710002,0.447388,-1.789552,0,306.2,-24.8,1.6,0,0,1684,1019,1024,1024,301.2,-2.4,44,3.57,3.598,3.596,3.599,0,0,22.521,134.51,7393.465854,41.0105,6,P-GPS,,2
534700,10/10/2019 19:06,19.28343815,-99.1387513,41.0105,,,7393.465854,2.7066974,9.167421553,13,0,14.152,7394.122022,41.666668,5.3239172,9.167421553,1.11847,-2.460634,0,307.2,-25,1,0,0,1684,1024,1024,1024,302.6,-2.4,44,3.57,3.598,3.596,3.599,0,0,22.521,134.51,7393.465854,41.0105,6,P-GPS,,2
534800,10/10/2019 19:06,19.28343847,-99.1387521,41.0105,,,7393.465854,3.3106712,9.46584676,13,0,14.152,7394.122022,41.666668,5.3239172,9.46584676,1.565858,-2.908022,0,307.9,-24.4,0,0,0,1684,1024,1024,1024,304,-2.4,44,3.57,3.598,3.596,3.599,0,0,22.521,134.51,7393.465854,41.0105,6,P-GPS,,2
534800,10/10/2019 19:06,19.28343847,-99.1387521,41.0105,,,7393.465854,3.3106712,9.46584676,13,0,14.152,7394.122022,41.666668,5.3239172,9.46584676,1.565858,-2.908022,0,307.9,-24.4,0,0,0,1684,1021,1024,1024,304.9,-2.4,44,3.57,3.598,3.596,3.599,0,0,22.521,134.51,7393.465854,41.0105,6,P-GPS,,2
